Country,Region,Place_Name,Station_Name,WMO,Latitude,Longitude,Elevation,station_id,observation_time,air_temp,air_temp_unit,dew_point,dew_point_unit,min_temp,min_temp_unit,max_temp,max_temp_unit,temp_change,temp_change_unit,wind_indicator,wind_indicator_unit,wind_speed,wind_speed_unit,wind_direction,wind_direction_unit,pressure_sea_level,pressure_sea_level_unit,pressure_station_level,pressure_station_level_unit,pressure_change,pressure_change_unit,tendency,geopotential,geopotential_unit,height,height_unit,precipitation_indicator,precipitation3H,precipitation6H,precipitation9H,precipitation12H,precipitation15H,precipitation18H,precipitation24H,precipitation_unit,min_lowest_cloud_base,max_lowest_cloud_base,lowest_cloud_base_unit,visibility,visibility_unit,cloud_cover,cloud_cover_unit,cloud_type,cloud_amount,cloud_amount_unit,weather_phenomena,present_weather,TBO,TBO_unit,past_weather,low_cloud_direction,mid_cloud_direction,high_cloud_direction
Bahrain,15,Bahrain|Qalālī,Bahrain Intl AP,41150.0,26.266666666666666,50.65,2.0,41150,12034,32.6,Cel,28.8,Cel,,,,,,,4.0,KT,2.0,KT,,,1002.0,hPa,,,,,,,,,,4.0,,,,,,,,,,,,7000.0,m,0,okta,,,,1.0,5.0,3.0,h,0.0,,,
Bangladesh,BAR,Cox's Bazar|Malaher Para,Cox's Bazar,41992.0,21.433333333333334,91.93333333333334,2.0,41992,12034,29.5,Cel,27.0,Cel,,,,,,,4.0,KT,0.0,KT,,,1002.7,hPa,1002.5,hPa,,,,,,,,2.0,,,,,,,,,,,,2500.0,m,8,okta,low,5.0,okta,1.0,5.0,3.0,h,5.0,,,
Bangladesh,-,Feni|Ruhitia,Feni,41943.0,23.03333333333333,91.41666666666669,6.0,41943,12034,29.0,Cel,25.0,Cel,25.5,Cel,,,,,4.0,KT,2.0,KT,180.0,deg,1003.1,hPa,1002.4,hPa,-1.0,hPa,,,,,,3.0,,,,,,,54.5,,,,,4000.0,m,6,okta,low,3.0,okta,2.0,,,,,,,
Bangladesh,46,Jessore|Mādghopa,Jessore AP,41936.0,23.183333333333334,89.16666666666667,6.0,41936,12034,29.8,Cel,29.0,Cel,27.8,Cel,,,,,4.0,KT,3.0,KT,270.0,deg,1002.5,hPa,1001.8,hPa,-0.3,hPa,,,,,,2.0,,,,,,,0.0,,,,,1200.0,m,7,okta,low,5.0,okta,1.0,60.0,3.0,h,6.0,,,
Bangladesh,32,Dhaka|Dacca|Tejteri Bāzār,Tejgaon/Military,41923.0,23.766666666666666,90.38333333333334,8.0,41923,12034,31.8,Cel,27.0,Cel,28.2,Cel,,,,,4.0,KT,0.0,KT,,,1003.1,hPa,1002.1,hPa,-0.6,hPa,,,,,,3.0,,,,,,,4.6,,,,,5000.0,m,6,okta,low,1.0,okta,2.0,,,,,,,
Bangladesh,RAJ,Ishurdi|Iswardi,Ishurdi,41907.0,24.133333333333333,89.05,13.0,41907,12034,31.5,Cel,27.0,Cel,28.0,Cel,,,,,4.0,KT,2.0,KT,130.0,deg,1003.0,hPa,1001.5,hPa,-0.4,hPa,,,,,,3.0,,,,,,,0.0,,,,,5000.0,m,0,okta,,,,2.0,,,,,,,
Bangladesh,-,Barisal|Kāgāsura,Barisal,41950.0,22.75,90.36666666666666,3.0,41950,12034,25.2,Cel,25.0,Cel,25.0,Cel,,,,,4.0,KT,0.0,KT,,,1002.6,hPa,1002.4,hPa,-1.0,hPa,,,,,,2.0,,,,,,,34.9,,,,,3500.0,m,8,okta,low,6.0,okta,1.0,95.0,3.0,h,9.0,,,
Bangladesh,SYL,Sylhet,Osmani,41891.0,24.9,91.88333333333334,34.0,41891,12034,34.0,Cel,26.0,Cel,27.5,Cel,,,,,4.0,KT,0.0,KT,,,1002.9,hPa,999.2,hPa,-1.9,hPa,,,,,,3.0,,,,,,,0.0,,,,,5000.0,m,5,okta,low,3.0,okta,1.0,5.0,3.0,h,2.0,,,
Bangladesh,RAJ,Bogra|Chak Brindāban,Bogra,41883.0,24.85,89.36666666666666,18.0,41883,12034,31.8,Cel,27.0,Cel,27.8,Cel,,,,,4.0,KT,2.0,KT,270.0,deg,1003.2,hPa,1001.2,hPa,-1.0,hPa,,,,,,3.0,,,,,,,0.0,,,,,6000.0,m,3,okta,middle,3.0,okta,2.0,,,,,,,
Bangladesh,BAR,Chittagong|Patenga|M.a. Hannan Intl|Kāmāl Mahājaner Hāt,Shah Amanat International AP|MA Hannan International AP|Chittagong AFB,41978.0,22.266666666666666,91.81666666666666,4.0,41978,12034,30.2,Cel,27.0,Cel,26.6,Cel,,,,,4.0,KT,4.0,KT,90.0,deg,1002.8,hPa,1002.1,hPa,-1.9,hPa,,,,,,3.0,,,,,,,3.0,,,,,8000.0,m,6,okta,low,3.0,okta,2.0,,,,,,,
Bangladesh,RAJ,Rangpur|Deodoba,Rangpur,41859.0,25.73333333333333,89.23333333333333,33.0,41859,12034,30.6,Cel,25.0,Cel,26.4,Cel,,,,,4.0,KT,2.0,KT,130.0,deg,1004.0,hPa,1000.4,hPa,-0.4,hPa,,,,,,3.0,,,,,,,13.2,,,,,5000.0,m,7,okta,low,4.0,okta,2.0,,,,,,,
Bulgaria,3,Varna|Sv. Konstantin i Elena,Varna MET OBS,15552.0,43.2,27.95,40.0,15552,12034,17.8,Cel,16.8,Cel,17.7,Cel,21.6,Cel,,,4.0,KT,0.0,KT,,,1007.9,hPa,1003.2,hPa,,,2.0,,,,,4.0,,,,,,,,,,,,10000.0,m,2,okta,low,2.0,okta,2.0,,,,,,,
Bulgaria,02,Sliven|Sotirya,Sliven,15640.0,42.66666666666666,26.33333333333333,257.0,15640,12034,16.2,Cel,15.9,Cel,16.0,Cel,17.9,Cel,,,4.0,KT,0.0,KT,,,1009.6,hPa,979.5,hPa,,,2.0,,,,,4.0,,,,,,,,,,,,16000.0,m,8,okta,,,,2.0,,,,,,,
Bulgaria,17,Razgrad|Lipnik,Razgrad,15549.0,43.56666666666667,26.5,346.0,15549,12034,14.9,Cel,14.4,Cel,14.9,Cel,17.9,Cel,,,4.0,KT,2.0,KT,230.0,deg,1007.8,hPa,967.7,hPa,,,1.0,,,,,4.0,,,,,,,,,,,,20000.0,m,0,okta,,,,2.0,,,,,,,
Bulgaria,26,Kurdjali|Nevestino,Kardzali,15730.0,41.65,25.383333333333333,330.0,15730,12034,14.9,Cel,14.4,Cel,14.8,Cel,18.7,Cel,,,4.0,KT,0.0,KT,,,1010.6,hPa,972.2,hPa,,,2.0,,,,,4.0,,,,,,,,,,,,15000.0,m,0,okta,,,,2.0,,,,,,,
Bulgaria,2,Burgas|Kvartal Kraymorie,Burgas AP,15655.0,42.5,27.48333333333333,27.0,15655,12034,17.9,Cel,16.9,Cel,17.8,Cel,22.1,Cel,,,4.0,KT,1.0,KT,270.0,deg,1008.9,hPa,1005.7,hPa,,,2.0,,,,,4.0,,,,,,,,,,,,18000.0,m,5,okta,low,5.0,okta,1.0,2.0,3.0,h,8.0,,,
China,HL,Nenjiang,Nenjiang,50557.0,49.16666666666666,125.23333333333332,224.0,50557,12034,14.0,Cel,4.8,Cel,7.7,Cel,26.4,Cel,-9.0,Cel,4.0,KT,1.0,KT,60.0,deg,1016.9,hPa,988.0,hPa,1.5,hPa,7.0,,,,,0.0,,0.0,,0.0,,,0.0,mm,,,,29000.0,m,0,,,,,4.0,21.0,3.0,h,0.0,,,
China,XJ,Xemirxek,Xemirxek,51076.0,47.73333333333333,88.08333333333333,724.0,51076,12034,10.4,Cel,9.6,Cel,10.3,Cel,22.6,Cel,-7.0,Cel,4.0,KT,1.0,KT,150.0,deg,1019.9,hPa,934.7,hPa,0.2,hPa,2.0,,,,,0.0,,8.0,,8.0,,,8.4,mm,,,,13000.0,m,0,,,,,4.0,60.0,3.0,h,5.0,,,
China,XJ,Fuyun,Fuyun,51087.0,47.016666666666666,89.5,889.0,51087,12034,13.5,Cel,9.0,Cel,12.9,Cel,22.8,Cel,-5.0,Cel,4.0,KT,4.0,KT,260.0,deg,1018.2,hPa,919.8,hPa,-1.2,hPa,2.0,,,,,0.0,,0.0,,0.0,,,0.0,mm,,,,20000.0,m,0,,,,,4.0,60.0,3.0,h,5.0,,,
China,XJ,Hoboksar,Hoboksar,51156.0,46.81,85.74888888888889,1315.0,51156,12034,9.2,Cel,7.2,Cel,8.7,Cel,18.7,Cel,-6.0,Cel,4.0,KT,4.0,KT,100.0,deg,1018.3,hPa,870.1,hPa,-2.0,hPa,2.0,,,,,0.0,,0.0,,0.9,,,0.9,mm,,,,24000.0,m,0,,,,,4.0,60.0,3.0,h,0.0,,,
China,XJ,Karamay,Karamay,51243.0,45.61666666666667,84.85,454.0,51243,12034,19.5,Cel,8.2,Cel,16.4,Cel,24.2,Cel,-5.0,Cel,4.0,KT,1.0,KT,80.0,deg,1016.6,hPa,964.7,hPa,-1.3,hPa,2.0,,,,,0.0,,0.0,,0.0,,,0.0,mm,,,,30000.0,m,0,,,,,4.0,0.0,3.0,h,0.0,,,
China,XJ,Bachu,Bachu,51716.0,39.8,78.56666666666666,1114.0,51716,12034,18.7,Cel,8.1,Cel,12.4,Cel,25.8,Cel,-5.0,Cel,4.0,KT,3.0,KT,50.0,deg,1012.3,hPa,889.6,hPa,-1.0,hPa,2.0,,,,,0.0,,0.0,,0.0,,,0.0,mm,,,,18000.0,m,0,,,,,4.0,0.0,3.0,h,0.0,,,
China,XJ,Xibeiwan,Xibeiwan,51379.0,44.016666666666666,89.56666666666666,764.0,51379,12034,18.6,Cel,6.8,Cel,12.4,Cel,23.3,Cel,,,4.0,KT,2.0,KT,250.0,deg,1018.0,hPa,927.5,hPa,-1.0,hPa,7.0,,,,,0.0,,0.0,,0.0,,,0.0,mm,,,,30000.0,m,0,,,,,4.0,0.0,3.0,h,0.0,,,
China,XJ,Shuimogou|Urumqi|Urum-qi|Urumchi|Dihua|Ürümqi,Shuimogou,51463.0,43.78333333333333,87.61666666666666,897.0,51463,12034,14.9,Cel,7.5,Cel,13.2,Cel,20.8,Cel,-5.0,Cel,4.0,KT,1.0,KT,140.0,deg,1017.9,hPa,903.8,hPa,-1.3,hPa,2.0,,,,,0.0,,0.0,,0.0,,,0.0,mm,,,,30000.0,m,0,,,,,4.0,0.0,3.0,h,0.0,,,
China,XJ,Putao,Putao,51573.0,42.95,89.22972222222222,22.0,51573,12034,26.5,Cel,6.0,Cel,21.8,Cel,30.7,Cel,5.0,Cel,4.0,KT,2.0,KT,280.0,deg,1014.0,hPa,1009.3,hPa,1.3,hPa,2.0,,,,,0.0,,0.0,,0.0,,,0.0,mm,,,,4100.0,m,0,,,,,4.0,6.0,3.0,h,0.0,,,
China,XJ,Kuqa|Kucha,Kuqa,51644.0,41.71666666666667,82.95,1058.0,51644,12034,17.1,Cel,7.2,Cel,10.0,Cel,23.8,Cel,-5.0,Cel,4.0,KT,2.0,KT,340.0,deg,1013.9,hPa,893.6,hPa,0.3,hPa,2.0,,,,,0.0,,0.0,,0.3,,,0.3,mm,,,,30000.0,m,0,,,,,4.0,0.0,3.0,h,0.0,,,
China,XJ,Korla,Korla,51656.0,41.72944444444445,85.81861111111111,891.0,51656,12034,20.1,Cel,9.1,Cel,12.9,Cel,28.5,Cel,5.0,Cel,4.0,KT,4.0,KT,90.0,deg,1013.5,hPa,913.2,hPa,1.0,hPa,2.0,,,,,0.0,,0.0,,0.0,,,0.0,mm,,,,15000.0,m,0,,,,,4.0,0.0,3.0,h,0.0,,,
China,XJ,Kashgar,Kashgar AP,51709.0,39.48333333333333,75.75,1372.0,51709,12034,18.1,Cel,6.3,Cel,12.9,Cel,23.5,Cel,5.0,Cel,4.0,KT,1.0,KT,300.0,deg,1012.2,hPa,862.0,hPa,-2.1,hPa,2.0,,,,,0.0,,0.0,,0.0,,,0.0,mm,,,,13000.0,m,0,,,,,4.0,0.0,3.0,h,0.0,,,
China,XJ,Akqi,Akqi,51711.0,40.93333333333333,78.45,2000.0,51711,12034,11.6,Cel,-0.2,Cel,5.7,Cel,18.2,Cel,5.0,Cel,4.0,KT,3.0,KT,250.0,deg,1011.6,hPa,803.2,hPa,-1.6,hPa,7.0,,,,,0.0,,0.0,,0.0,,,0.0,mm,,,,30000.0,m,0,,,,,4.0,0.0,3.0,h,0.0,,,
China,XJ,Jinghe,Jinghe,51334.0,44.56666666666667,82.81666666666666,332.0,51334,12034,20.7,Cel,9.6,Cel,11.1,Cel,23.9,Cel,,,4.0,KT,1.0,KT,100.0,deg,1016.6,hPa,978.2,hPa,-2.3,hPa,7.0,,,,,0.0,,0.0,,0.2,,,0.2,mm,,,,30000.0,m,0,,,,,4.0,0.0,3.0,h,0.0,,,
China,XJ,Tikanlik,Tikanlik,51765.0,40.63333333333333,87.7,842.0,51765,12034,23.0,Cel,9.1,Cel,13.3,Cel,23.3,Cel,5.0,Cel,4.0,KT,2.0,KT,160.0,deg,1013.9,hPa,919.5,hPa,0.4,hPa,2.0,,,,,0.0,,0.0,,0.0,,,0.0,mm,,,,30000.0,m,0,,,,,4.0,0.0,3.0,h,0.0,,,
China,XJ,Guma|Pishan,Guma,51818.0,37.61666666666667,78.28333333333333,1372.0,51818,12034,18.9,Cel,6.7,Cel,9.4,Cel,23.6,Cel,5.0,Cel,4.0,KT,1.0,KT,200.0,deg,1012.9,hPa,863.1,hPa,-1.8,hPa,2.0,,,,,0.0,,0.0,,0.0,,,0.0,mm,,,,10000.0,m,0,,,,,4.0,0.0,3.0,h,0.0,,,
China,FJ,Fuzhou|Foochow|Fuchow|Fuh-chau|Fuh-Chow|Hock Chew|Hokchew|Guxi|Hongshanzhen,Fuzhou City MET,58847.0,26.08333333333333,119.28333333333332,81.0,58847,12034,33.1,Cel,23.4,Cel,27.9,Cel,37.9,Cel,,,4.0,KT,2.0,KT,10.0,deg,1009.1,hPa,999.5,hPa,1.2,hPa,7.0,,,,,0.0,,0.0,,0.0,,,0.0,mm,,,,11000.0,m,0,,,,,4.0,0.0,3.0,h,0.0,,,
China,HB,Wuhan|Dingjiatai|Wujiashan,Wuhan Tianhe Intl AP,57494.0,30.6,114.05,24.0,57494,12034,24.7,Cel,21.0,Cel,23.8,Cel,29.7,Cel,-5.0,Cel,4.0,KT,3.0,KT,10.0,deg,1011.7,hPa,1008.8,hPa,-2.4,hPa,2.0,,,,,0.0,,0.0,,0.0,,,0.0,mm,,,,22000.0,m,0,,,,,4.0,0.0,3.0,h,0.0,,,
China,QH,Qapugtang|Zadoi,Qapugtang,56018.0,32.9,95.3,4165.0,56018,12034,11.6,Cel,4.8,Cel,7.5,Cel,17.8,Cel,-5.0,Cel,4.0,KT,1.0,KT,90.0,deg,1003.0,hPa,625.2,hPa,-0.1,hPa,2.0,,,,,0.0,,3.0,,3.0,,,2.7,mm,,,,30000.0,m,0,,,,,4.0,0.0,3.0,h,0.0,,,
China,QH,Tanggulashan,Tanggulash,56004.0,34.21666666666667,92.43333333333334,4536.0,56004,12034,9.7,Cel,4.1,Cel,3.4,Cel,14.1,Cel,-5.0,Cel,4.0,KT,1.0,KT,10.0,deg,999.0,hPa,589.4,hPa,-0.1,hPa,2.0,,,,,0.0,,0.0,,0.0,,,7.3,mm,,,,30000.0,m,0,,,,,4.0,0.0,3.0,h,0.0,,,
China,XZ,Lhasa|La-sa|Lasa,Lhasa MET,55591.0,29.66,91.13,3650.0,55591,12034,16.9,Cel,8.3,Cel,12.3,Cel,22.3,Cel,5.0,Cel,4.0,KT,2.0,KT,290.0,deg,998.7,hPa,657.7,hPa,-0.8,hPa,2.0,,,,,0.0,,0.1,,1.0,,,1.1,mm,,,,30000.0,m,0,,,,,4.0,0.0,3.0,h,0.0,,,
China,XZ,Nagqu|Dagapu,Nagqu,55299.0,31.48333333333333,92.06666666666666,4512.0,55299,12034,12.2,Cel,3.9,Cel,6.0,Cel,17.6,Cel,,,4.0,KT,3.0,KT,110.0,deg,996.6,hPa,592.1,hPa,-0.2,hPa,2.0,,,,,0.0,,0.2,,0.2,,,1.9,mm,,,,30000.0,m,0,,,,,4.0,0.0,3.0,h,0.0,,,
China,XJ,Shache,Shache,51811.0,38.43333333333333,77.26666666666667,1218.0,51811,12034,16.5,Cel,9.2,Cel,10.1,Cel,24.2,Cel,,,4.0,KT,1.0,KT,300.0,deg,1013.1,hPa,877.6,hPa,-2.2,hPa,2.0,,,,,0.0,,0.0,,0.0,,,0.0,mm,,,,8000.0,m,0,,,,,4.0,0.0,3.0,h,0.0,,,
China,XZ,Shiquanhe,Shiquanhe,55228.0,32.5,80.08333333333333,4280.0,55228,12034,8.1,Cel,-7.2,Cel,7.7,Cel,17.3,Cel,-5.0,Cel,4.0,KT,1.0,KT,270.0,deg,1000.3,hPa,608.0,hPa,0.6,hPa,2.0,,,,,0.0,,0.0,,0.0,,,0.0,mm,,,,30000.0,m,0,,,,,4.0,0.0,3.0,h,0.0,,,
China,NM,Hohhot|Huhhot,Hohhot Baita Intl AP,53463.0,40.85,111.56666666666666,1188.0,53463,12034,20.1,Cel,13.6,Cel,15.4,Cel,20.2,Cel,5.0,Cel,4.0,KT,2.0,KT,130.0,deg,1015.3,hPa,887.8,hPa,-6.0,hPa,7.0,,,,,0.0,,0.0,,0.0,,,0.0,mm,,,,30000.0,m,0,,,,,4.0,0.0,3.0,h,0.0,,,
China,QH,Wudaoliang,Wudaoliang,52908.0,35.21666666666667,93.08333333333331,4626.0,52908,12034,8.8,Cel,3.6,Cel,3.0,Cel,14.6,Cel,,,4.0,KT,3.0,KT,220.0,deg,1002.8,hPa,583.6,hPa,-0.4,hPa,2.0,,,,,0.0,,0.0,,1.0,,,1.5,mm,,,,30000.0,m,0,,,,,4.0,0.0,3.0,h,0.0,,,
China,QH,Golmud,Golmud,52818.0,36.41666666666666,94.9,2821.0,52818,12034,10.2,Cel,3.9,Cel,8.2,Cel,28.2,Cel,-9.0,Cel,4.0,KT,3.0,KT,300.0,deg,1014.1,hPa,729.2,hPa,5.4,hPa,2.0,,,,,0.0,,0.0,,4.0,,,9.2,mm,,,,30000.0,m,0,,,,,4.0,0.0,3.0,h,0.0,,,
China,GS,Minqin,Minqin,52681.0,38.63333333333333,103.08333333333331,1367.0,52681,12034,16.7,Cel,14.4,Cel,13.4,Cel,16.7,Cel,5.0,Cel,4.0,KT,6.0,KT,280.0,deg,1011.2,hPa,861.6,hPa,-3.4,hPa,2.0,,,,,0.0,,0.1,,0.7,,,2.1,mm,,,,19000.0,m,0,,,,,4.0,0.0,3.0,h,0.0,,,
China,QH,Lenghu,Lenghu,52602.0,38.833333333333336,93.38333333333334,2754.0,52602,12034,9.8,Cel,2.4,Cel,7.5,Cel,22.6,Cel,-10.0,Cel,4.0,KT,1.0,KT,300.0,deg,1014.7,hPa,730.9,hPa,3.5,hPa,2.0,,,,,0.0,,0.2,,0.2,,,0.2,mm,,,,30000.0,m,0,,,,,4.0,21.0,3.0,h,0.0,,,
China,QH,Huatugou|Mangnai,Huatugou,51886.0,38.25,90.85,2949.0,51886,12034,10.5,Cel,2.1,Cel,8.7,Cel,16.0,Cel,-5.0,Cel,4.0,KT,3.0,KT,130.0,deg,1011.3,hPa,716.6,hPa,2.3,hPa,2.0,,,,,0.0,,0.0,,0.0,,,1.3,mm,,,,28000.0,m,0,,,,,4.0,0.0,3.0,h,0.0,,,
China,XJ,Hotan,Hotan AP,51828.0,37.13333333333333,79.93333333333334,1358.0,51828,12034,20.9,Cel,5.3,Cel,14.6,Cel,23.0,Cel,5.0,Cel,4.0,KT,1.0,KT,180.0,deg,1010.7,hPa,862.7,hPa,-1.2,hPa,2.0,,,,,0.0,,0.0,,0.0,,,0.0,mm,,,,6000.0,m,0,,,,,4.0,5.0,3.0,h,0.0,,,
China,SD,Qingdao|Ch'ingtao|Tsingtao|Dazhanshancun,Qingdao Liuting Intl AP,54857.0,36.06666666666667,120.33333333333331,40.0,54857,12034,28.1,Cel,23.7,Cel,24.7,Cel,30.1,Cel,,,4.0,KT,4.0,KT,310.0,deg,1013.1,hPa,1004.2,hPa,-3.3,hPa,7.0,,,,,0.0,,0.0,,0.0,,,0.0,mm,,,,30000.0,m,0,,,,,4.0,0.0,3.0,h,0.0,,,
China,XJ,Hami|Taojiagong,Hami Met Obs,52203.0,42.81666666666667,93.51666666666668,765.0,52203,12034,18.4,Cel,11.9,Cel,15.6,Cel,26.5,Cel,-8.0,Cel,4.0,KT,2.0,KT,190.0,deg,1016.9,hPa,932.3,hPa,4.6,hPa,2.0,,,,,0.0,,0.0,,0.0,,,0.0,mm,,,,24000.0,m,0,,,,,4.0,0.0,3.0,h,0.0,,,
Egypt,IML,Ismailia|Al ‘Arā’ishīyah al Jadīdah,Ismailia,62440.0,30.591666666666665,32.24722222222222,12.48,62440,12034,,,,,,,,,,,4.0,KT,,,,,,,,,,,,,,,,,,,,,,,,,,,,,,0,,,,,,,,,,,,
Egypt,TU,Aburdees|Abū Rudays,Aburdees,62458.0,28.910555555555558,33.19555555555556,5.19,62458,12034,26.5,Cel,8.9,Cel,,,,,,,4.0,KT,0.0,KT,,,1008.8,hPa,,,,,,,,,,3.0,,,,,,,,,,,,10000.0,m,0,okta,,,,2.0,,,,,,,
Egypt,QIN,Luxor|Al Ḩubayl,Luxor AP,62405.0,25.67083333333333,32.70638888888889,89.66,62405,12034,27.3,Cel,8.0,Cel,,,,,,,4.0,KT,2.0,KT,170.0,deg,1008.6,hPa,,,,,,,,,,3.0,,,,,,,,,,,,10000.0,m,0,okta,,,,2.0,,,,,,,
Egypt,SHQ,Port Said|Al Manākh,El Gamil,62332.0,31.27888888888889,32.23777777777778,2.44,62332,12034,29.3,Cel,20.9,Cel,,,,,,,4.0,KT,7.0,KT,130.0,deg,1010.1,hPa,,,,,,,,,,3.0,,,,,,,,,,,,10000.0,m,0,okta,,,,2.0,,,,,,,
Egypt,BHY,El Natroon|Madīnat Wādī an Naţrūn,Wadi,62357.0,30.4025,30.363333333333333,49.0,62357,12034,,,,,,,,,,,4.0,KT,,,,,,,,,,,,,,,,,,,,,,,,,,,,,,0,,,,,,,,,,,,
Egypt,QHR,Cairo|Almāz̧ah,Cairo / Intl AP,62366.0,30.11138888888889,31.413888888888888,116.43,62366,12034,30.5,Cel,9.9,Cel,,,,,,,4.0,KT,2.0,KT,340.0,deg,1008.8,hPa,,,,,,,,,,3.0,,,,,,,,,,,,10000.0,m,0,okta,,,,5.0,,,,,,,
Egypt,MNY,Minya|Tallah,Minya,62387.0,28.08333333333333,30.73333333333333,37.15,62387,12034,25.4,Cel,15.5,Cel,,,,,,,4.0,KT,2.0,KT,360.0,deg,1009.3,hPa,,,,,,,,,,3.0,,,,,,,,,,,,10000.0,m,0,okta,,,,2.0,,,,,,,
Egypt,WJD,Asyut|Banī Ghālib,Asyut,62393.0,27.038055555555555,31.011944444444445,235.31,62393,12034,26.8,Cel,7.5,Cel,,,,,,,4.0,KT,0.0,KT,,,1011.7,hPa,,,,,,,,,,3.0,,,,,,,,,,,,10000.0,m,0,okta,,,,2.0,,,,,,,
Egypt,ASW,Aswan|Asswan|Naj‘ Tinjār,Aswan Dam,62414.0,23.96444444444445,32.82,201.78,62414,12034,30.5,Cel,9.5,Cel,,,,,,,4.0,KT,0.0,KT,,,1009.1,hPa,,,,,,,,,,3.0,,,,,,,,,,,,10000.0,m,0,okta,,,,2.0,,,,,,,
Egypt,JZH,Baharia|Al Bawīţī,Oasis,62420.0,28.33333333333333,28.9,127.47,62420,12034,27.0,Cel,2.3,Cel,,,,,,,4.0,KT,5.0,KT,330.0,deg,1010.6,hPa,,,,,,,,,,3.0,,,,,,,,,,,,10000.0,m,0,okta,,,,2.0,,,,,,,
Egypt,WJD,Farafra|Qaşr al Farāfirah,Oasis,62423.0,27.058333333333334,27.989166666666662,82.2,62423,12034,,,,,,,,,,,4.0,KT,,,,,,,739.5,hPa,,,,,,,,,,,,,,,,,,,,,,0,,,,,,,,,,,,
Egypt,WJD,Kharga|Al Khārijah,Oasis,62435.0,25.46444444444445,30.5425,58.52,62435,12034,25.9,Cel,11.1,Cel,,,,,,,4.0,KT,2.0,KT,250.0,deg,1007.9,hPa,,,,,,,,,,3.0,,,,,,,,,,,,10000.0,m,0,okta,,,,2.0,,,,,,,
Greece,LI,Mitilini|Pligónion,Mitilini,16667.0,39.05388888888889,26.60361111111111,4.22,16667,12034,21.8,Cel,19.9,Cel,,,,,,,4.0,KT,0.0,KT,,,1011.0,hPa,1009.9,hPa,,,,,,,,4.0,,,,,,,,,,,,10000.0,m,2,okta,low,2.0,okta,2.0,,,,,,,
Greece,LI,Limnos Island|Karpásion,Limnos Island AP,16650.0,39.922222222222224,25.232777777777777,4.81,16650,12034,21.8,Cel,20.9,Cel,,,,,,,4.0,KT,0.0,KT,,,1009.3,hPa,1008.5,hPa,,,5.0,,,,,4.0,,,,,,,,,,,,10000.0,m,4,okta,low,3.0,okta,2.0,,,,,,,
Greece,LI,Alexandroupolis|Apalós,Alexandroupolis / MIL,16627.0,40.85722222222222,25.946944444444444,3.52,16627,12034,17.4,Cel,16.4,Cel,,,,,,,4.0,KT,0.0,KT,,,1009.3,hPa,1008.7,hPa,,,1.0,,,,,4.0,,,,,,,,,,,,10000.0,m,1,okta,low,1.0,okta,2.0,,,,,,,
Greece,LI,Samos Airport|Chóra,Samos Airport,16723.0,37.69083333333333,26.91611111111111,5.79,16723,12034,24.6,Cel,21.9,Cel,,,,,,,4.0,KT,6.0,KT,140.0,deg,1011.1,hPa,1009.8,hPa,,,4.0,,,,,4.0,,,,,,,,,,,,10000.0,m,2,okta,low,2.0,okta,2.0,,,,,,,
Greece,LI,Naxos Island,Naxos Island,16732.0,37.10138888888889,25.372777777777777,10.75,16732,12034,24.2,Cel,20.1,Cel,,,,,,,4.0,KT,6.0,KT,130.0,deg,1009.5,hPa,1008.4,hPa,,,4.0,,,,,4.0,,,,,,,,,,,,,,0,,,,,6.0,,,,,,,
Greece,LI,Kos Airport|Antimácheia,Kos Airport,16742.0,36.80055555555556,27.09055555555556,125.66,16742,12034,23.4,Cel,21.6,Cel,,,,,,,4.0,KT,4.0,KT,120.0,deg,1011.0,hPa,996.0,hPa,,,7.0,,,,,4.0,,,,,,,,,,,,10000.0,m,2,okta,low,2.0,okta,2.0,,,,,,,
Greece,LI,Rhodes|Rodos|Diagoras|Paradeísion,Paradissi,16749.0,36.4025,28.08888888888889,6.45,16749,12034,22.2,Cel,20.4,Cel,,,,,,,4.0,KT,2.0,KT,,,1010.2,hPa,1008.9,hPa,,,7.0,,,,,4.0,,,,,,,,,,,,10000.0,m,3,okta,low,3.0,okta,2.0,,,,,,,
Greece,M,Iraklion|Heraklion Airport Terminal,Nikos Kazantzakis AP,16754.0,35.335277777777776,25.181944444444444,35.05,16754,12034,22.0,Cel,20.5,Cel,,,,,,,4.0,KT,7.0,KT,200.0,deg,1011.0,hPa,1006.2,hPa,,,8.0,,,,,4.0,,,,,,,,,,,,10000.0,m,1,okta,low,1.0,okta,2.0,,,,,,,
Greece,LI,Kasteli|Moukhtároi,Kasteli AFB,16760.0,35.18888888888889,25.32888888888889,337.0,16760,12034,18.4,Cel,16.4,Cel,,,,,,,4.0,KT,0.0,KT,,,1012.3,hPa,,,,,4.0,,,,,4.0,,,,,,,,,,,,10000.0,m,1,okta,low,1.0,okta,2.0,,,,,,,
Greece,LI,Chios|Kambos,Chios AP,16706.0,38.34527777777778,26.141944444444444,4.42,16706,12034,21.8,Cel,20.9,Cel,,,,,,,4.0,KT,3.0,KT,,,1009.4,hPa,1008.7,hPa,,,7.0,,,,,4.0,,,,,,,,,,,,10000.0,m,4,okta,low,4.0,okta,2.0,,,,,,,
India,DL,Delhi|Safdarjung Enclave,Delhi / Safdarjung AP,42182.0,28.58333333333333,77.2,211.0,42182,12034,25.2,Cel,25.2,Cel,23.1,Cel,32.6,Cel,,,4.0,KT,3.0,KT,70.0,deg,999.9,hPa,,,-3.8,hPa,,,,,,2.0,,,,,,,,,,,,2000.0,m,8,okta,low,5.0,okta,1.0,10.0,3.0,h,6.0,,,
India,RJ,Ganganagar|Gangānagar,Ganganagar,42123.0,29.916666666666668,73.88333333333334,172.0,42123,12034,29.2,Cel,25.8,Cel,28.0,Cel,36.4,Cel,,,4.0,KT,1.0,KT,230.0,deg,1000.2,hPa,,,-5.1,hPa,,,,,,3.0,,,,,,,,,,,,4000.0,m,2,okta,,,,2.0,,,,,,,
India,HR,Hissar|Hisār,Hissar,42131.0,29.166666666666668,75.73333333333333,209.0,42131,12034,28.6,Cel,26.9,Cel,25.7,Cel,34.0,Cel,,,4.0,KT,2.0,KT,270.0,deg,1000.4,hPa,,,,,,,,,,3.0,,,,,,,,,,,,4000.0,m,7,okta,low,3.0,okta,2.0,,,,,,,
India,RJ,Bikaner,Bikaner,42165.0,28.0,73.3,223.0,42165,12034,29.0,Cel,25.6,Cel,25.4,Cel,36.6,Cel,,,4.0,KT,0.0,KT,,,1000.1,hPa,,,,,,,,,,3.0,,,,,,,,,,,,4000.0,m,0,okta,,,,2.0,,,,,,,
India,UP,Izatnagar,Bareilly AFS,42189.0,28.366666666666667,79.4,167.0,42189,12034,25.8,Cel,25.8,Cel,24.0,Cel,32.1,Cel,,,4.0,KT,2.0,KT,50.0,deg,998.8,hPa,,,-2.8,hPa,,,,,,2.0,,,,,,,,,,,,2000.0,m,8,okta,low,6.0,okta,1.0,51.0,3.0,h,5.0,,,
India,KA,Bangalore|Nagartapete,Bangalore,43295.0,12.966666666666669,77.58333333333333,917.0,43295,12034,22.2,Cel,18.9,Cel,20.5,Cel,29.2,Cel,,,4.0,KT,3.0,KT,230.0,deg,1012.4,hPa,910.2,hPa,1.8,hPa,,850.0,hPa,1511.0,gpm,3.0,,,,,,,,,,,,10000.0,m,7,okta,low,5.0,okta,2.0,,,,,,,
India,AS,Dibrugarh|Mohanbāri,Dibrugarh AP|Mohanbari AFS,42314.0,27.48333333333333,95.01666666666668,110.0,42314,12034,29.6,Cel,27.1,Cel,26.4,Cel,,,,,4.0,KT,0.0,KT,,,1005.4,hPa,,,-2.7,hPa,,,,,,2.0,,,,,,,,,,,,4000.0,m,6,okta,low,3.0,okta,1.0,10.0,3.0,h,2.0,,,
India,RJ,Jaisalmer,Jaisalmer,42328.0,26.9,70.91666666666667,231.0,42328,12034,28.4,Cel,25.9,Cel,26.7,Cel,37.4,Cel,,,4.0,KT,6.0,KT,200.0,deg,999.8,hPa,,,-0.4,hPa,,,,,,3.0,,,,,,,,,,,,2000.0,m,2,okta,middle,2.0,okta,1.0,5.0,3.0,h,2.0,,,
India,RJ,Jodhpur,Jodhpur AFS,42339.0,26.3,73.01666666666667,217.0,42339,12034,28.0,Cel,25.2,Cel,26.3,Cel,35.0,Cel,,,4.0,KT,6.0,KT,230.0,deg,1002.9,hPa,,,0.7,hPa,,,,,,3.0,,,,,,,,,,,,2000.0,m,7,okta,low,3.0,okta,1.0,5.0,3.0,h,2.0,,,
India,UP,Dehra Dun|Dehra Dūn,Dehra Dun,42111.0,30.316666666666663,78.03333333333333,683.0,42111,12034,25.8,Cel,25.0,Cel,25.0,Cel,34.2,Cel,,,4.0,KT,1.0,KT,140.0,deg,999.7,hPa,932.2,hPa,-2.2,hPa,,,,,,2.0,,,,,,,,,,,,1000.0,m,8,okta,low,6.0,okta,1.0,61.0,3.0,h,6.0,,,
India,AS,North Lakhimpur,Lilabari,42309.0,27.23333333333333,94.11666666666666,101.0,42309,12034,30.4,Cel,26.2,Cel,21.8,Cel,,,,,4.0,KT,3.0,KT,70.0,deg,1005.5,hPa,,,-2.9,hPa,,,,,,2.0,,,,,,,,,,,,4000.0,m,4,okta,low,2.0,okta,2.0,,,,,,,
India,PB,Patiala|Sanaur,Patiala,42101.0,30.33333333333333,76.46666666666667,251.0,42101,12034,28.4,Cel,26.4,Cel,26.5,Cel,35.2,Cel,,,4.0,KT,2.0,KT,340.0,deg,1000.9,hPa,,,-3.1,hPa,,,,,,2.0,,,,,,,,,,,,4000.0,m,7,okta,low,3.0,okta,2.0,,,,,,,
India,KL,Trivandrum|Vazhuthacaud,Trivandrum,43371.0,8.483333333333333,76.95,59.9,43371,12034,25.8,Cel,23.8,Cel,24.7,Cel,31.2,Cel,,,4.0,KT,3.0,KT,320.0,deg,1012.4,hPa,1005.1,hPa,1.0,hPa,,,,,,2.0,,,,,,,,,,,,4000.0,m,7,okta,low,3.0,okta,1.0,60.0,3.0,h,6.0,,,
India,PB,Rajasansi|Amritsar,Sri Guru Ram Dass Jee Intl AP|Amritsar AFB,42071.0,31.633333333333333,74.86666666666666,229.0,42071,12034,29.0,Cel,25.9,Cel,25.0,Cel,34.0,Cel,,,4.0,KT,4.0,KT,250.0,deg,999.2,hPa,,,,,,,,,,3.0,,,,,,,,,,,,2000.0,m,0,okta,,,,1.0,10.0,3.0,h,0.0,,,
India,JK,Jammu|Karan Bāgh,Jammu,42056.0,32.666666666666664,74.83333333333333,318.0,42056,12034,27.0,Cel,22.6,Cel,22.7,Cel,34.5,Cel,,,4.0,KT,0.0,KT,,,,,956.2,hPa,,,,,,,,3.0,,,,,,,,,,,,4000.0,m,0,okta,,,,2.0,,,,,,,
India,JK,Banihal|Mangat,Banihal,42045.0,33.5,75.16666666666667,1624.0,42045,12034,22.4,Cel,13.9,Cel,13.6,Cel,,,,,4.0,KT,0.0,KT,,,996.7,hPa,825.8,hPa,,,,850.0,hPa,1377.0,gpm,3.0,,,,,,,,,,,,4000.0,m,0,okta,,,,2.0,,,,,,,
India,JK,Qazigund|Qazi Gund|Yor Khoshpur,Qazigund,42044.0,33.583333333333336,75.08333333333333,1690.0,42044,12034,17.4,Cel,13.5,Cel,11.6,Cel,,,,,4.0,KT,0.0,KT,,,1010.1,hPa,823.7,hPa,,,,850.0,hPa,1467.0,gpm,3.0,,,,,,,,,,,,4000.0,m,0,okta,,,,2.0,,,,,,,
India,JK,Srinagar|Durgjan,Srinagar,42027.0,34.083333333333336,74.83333333333333,1585.0,42027,12034,18.0,Cel,12.1,Cel,13.7,Cel,,,,,4.0,KT,1.0,KT,140.0,deg,1007.8,hPa,836.8,hPa,,,,850.0,hPa,1451.0,gpm,3.0,,,,,,,,,,,,2000.0,m,0,okta,,,,1.0,5.0,3.0,h,0.0,,,
India,KL,Kozhikode|Calicut,Kozhikode,43314.0,11.25,75.78333333333333,4.0,43314,12034,27.8,Cel,25.5,Cel,24.5,Cel,33.5,Cel,,,4.0,KT,0.0,KT,,,1011.5,hPa,,,1.2,hPa,,,,,,2.0,,,,,,,,,,,,10000.0,m,2,okta,,,,2.0,,,,,,,
India,TN,Coimbatore|Irugūr,Coimbatore Intl AP | Peelamed,43321.0,11.033333333333331,77.05,389.0,43321,12034,26.6,Cel,22.1,Cel,23.0,Cel,32.4,Cel,,,4.0,KT,6.0,KT,200.0,deg,1010.8,hPa,966.4,hPa,1.7,hPa,,,,,,3.0,,,,,,,,,,,,4000.0,m,3,okta,low,1.0,okta,1.0,10.0,3.0,h,2.0,,,
India,AN,Port Blair,Port Blair MET OBS,43333.0,11.666666666666666,92.71666666666668,79.0,43333,12034,29.2,Cel,25.8,Cel,26.2,Cel,,,,,4.0,KT,8.0,KT,270.0,deg,1010.1,hPa,,,0.5,hPa,,,,,,2.0,,,,,,,,,,,,4000.0,m,6,okta,low,5.0,okta,2.0,,,,,,,
India,,Minicoy,Minicoy,43369.0,8.3,73.15,1.8,43369,12034,27.8,Cel,26.9,Cel,25.4,Cel,30.8,Cel,,,4.0,KT,4.0,KT,320.0,deg,1012.4,hPa,,,1.6,hPa,,,,,,2.0,,,,,,,,,,,,4000.0,m,8,okta,low,4.0,okta,1.0,2.0,3.0,h,6.0,,,
India,RJ,Jaipur|Sāngāner,Jaipur Intl AP|Sanganer,42348.0,26.816666666666663,75.8,383.0,42348,12034,26.8,Cel,24.2,Cel,25.8,Cel,30.8,Cel,,,4.0,KT,8.0,KT,320.0,deg,1000.6,hPa,,,-1.8,hPa,,,,,,2.0,,,,,,,,,,,,2000.0,m,7,okta,low,4.0,okta,1.0,10.0,3.0,h,2.0,,,
India,AN,Long Island|Rongat,Long Island / MET OBS,43310.0,12.416666666666666,92.93333333333334,12.9,43310,12034,29.8,Cel,27.3,Cel,26.6,Cel,,,,,4.0,KT,1.0,KT,230.0,deg,1009.3,hPa,,,1.1,hPa,,,,,,2.0,,,,,,,,,,,,4000.0,m,5,okta,low,2.0,okta,2.0,,,,,,,
India,,Bhatinda,Bhatinda,42097.0,30.1666666667,74.5833333333,207.0,42097,12034,,,,,,,,,,,4.0,KT,57.0,KT,,,,,,,,,,,,,,1.0,,,,,,,,,,,,3100.0,m,0,okta,,,,2.0,8.0,3.0,h,3.0,,,
India,MP,Maharajpur|Kheriya Padam,Maharajpur AFS | Gwalior,42361.0,26.23333333333333,78.25,205.0,42361,12034,24.2,Cel,24.2,Cel,24.0,Cel,,,,,4.0,KT,3.0,KT,290.0,deg,994.6,hPa,,,-5.0,hPa,,,,,,2.0,,,,,,,,,,,,2000.0,m,8,okta,low,6.0,okta,1.0,61.0,3.0,h,6.0,,,
India,KL,Cochin|Kochi,Cochin (Navy)|Ins Garuda,43353.0,9.9475,76.2730556,1.0,43353,12034,27.2,Cel,24.6,Cel,25.0,Cel,30.2,Cel,,,4.0,KT,4.0,KT,110.0,deg,1012.3,hPa,,,1.5,hPa,,,,,,2.0,,,,,,,,,,,,4000.0,m,6,okta,low,3.0,okta,1.0,10.0,3.0,h,2.0,,,
India,UP,Gorakhpur,Gorakhpur AFS,42379.0,26.75,83.36666666666666,78.3,42379,12034,28.0,Cel,26.9,Cel,26.0,Cel,34.3,Cel,,,4.0,KT,4.0,KT,90.0,deg,1001.8,hPa,,,1.2,hPa,,,,,,2.0,,,,,,,,,,,,2000.0,m,7,okta,low,5.0,okta,1.0,10.0,3.0,h,6.0,,,
India,OR,Balasore,Balasore,42895.0,21.516666666666666,86.93333333333334,18.8,42895,12034,30.8,Cel,28.3,Cel,26.9,Cel,,,,,4.0,KT,0.0,KT,,,1004.8,hPa,,,2.1,hPa,,,,,,3.0,,,,,,,,,,,,4000.0,m,6,okta,low,4.0,okta,2.0,,,,,,,
India,GJ,Veraval|Verāval,Veraval,42909.0,20.9,70.36666666666666,6.0,42909,12034,28.0,Cel,26.6,Cel,27.4,Cel,,,,,4.0,KT,2.0,KT,,,1006.5,hPa,,,1.6,hPa,,,,,,2.0,,,,,,,,,,,,4000.0,m,7,okta,low,4.0,okta,1.0,20.0,3.0,h,2.0,,,
India,OR,Bhubaneswar|Bhubaneshwar,Bhubaneswar AP,42971.0,20.25,85.83333333333333,45.0,42971,12034,30.6,Cel,27.0,Cel,27.1,Cel,,,,,4.0,KT,2.0,KT,230.0,deg,1006.0,hPa,,,2.2,hPa,,,,,,2.0,,,,,,,,,,,,4000.0,m,6,okta,low,3.0,okta,1.0,5.0,3.0,h,2.0,,,
India,AP,Anantapur|Kandukūru,Anantapur,43237.0,14.583333333333334,77.63333333333334,364.0,43237,12034,27.4,Cel,21.0,Cel,22.9,Cel,34.2,Cel,,,4.0,KT,4.0,KT,250.0,deg,1007.1,hPa,968.4,hPa,2.1,hPa,,,,,,3.0,,,,,,,,,,,,10000.0,m,3,okta,low,2.0,okta,2.0,,,,,,,
India,KA,Mangalore,Bajpe,43284.0,12.916666666666666,74.88333333333334,102.0,43284,12034,24.8,Cel,23.6,Cel,23.5,Cel,29.8,Cel,,,4.0,KT,5.0,KT,290.0,deg,1011.3,hPa,999.7,hPa,1.9,hPa,,,,,,2.0,,,,,,,18.4,,,,,2000.0,m,8,okta,low,5.0,okta,1.0,21.0,3.0,h,6.0,,,
India,MM,Mumbai|Bombay|Jogeshwari,Mumbai / Chhatrapati Shivaji International AP|Sahar Intl AP|Santacruz AP,43003.0,19.116666666666667,72.85,14.2,43003,12034,25.4,Cel,24.2,Cel,23.8,Cel,,,,,4.0,KT,0.0,KT,,,1007.7,hPa,,,2.5,hPa,,,,,,2.0,,,,,,,,,,,,2000.0,m,8,okta,low,5.0,okta,1.0,50.0,3.0,h,6.0,,,
India,UP,Lucknow|Bijnaur,Lucknow / Chaudhary Charan Singh AP|Amausi,42369.0,26.75,80.88333333333334,122.0,42369,12034,28.0,Cel,25.3,Cel,25.4,Cel,31.6,Cel,,,4.0,KT,8.0,KT,140.0,deg,999.5,hPa,,,0.2,hPa,,,,,,2.0,,,,,,,,,,,,2000.0,m,8,okta,low,4.0,okta,1.0,50.0,3.0,h,2.0,,,
India,MH,Aurangabad Chikalthana Aerodrome,Aurangabad Chikalthana Aerodrome,43014.0,19.85,73.4,585.0,43014,12034,24.0,Cel,21.1,Cel,22.1,Cel,,,,,4.0,KT,6.0,KT,250.0,deg,1006.4,hPa,942.4,hPa,2.1,hPa,,,,,,3.0,,,,,,,,,,,,4000.0,m,4,okta,low,4.0,okta,1.0,5.0,3.0,h,4.0,,,
India,MP,Jagdalpur,Jagdalpur,43041.0,19.08333333333333,82.03333333333333,554.0,43041,12034,26.4,Cel,23.0,Cel,22.9,Cel,,,,,4.0,KT,4.0,KT,180.0,deg,1006.5,hPa,946.0,hPa,2.6,hPa,,,,,,2.0,,,,,,,,,,,,2000.0,m,3,okta,low,3.0,okta,1.0,5.0,3.0,h,0.0,,,
India,OR,Jharsuguda|Kenādhipa,Jharsuguda,42886.0,21.916666666666668,84.08333333333333,228.0,42886,12034,29.4,Cel,25.1,Cel,25.2,Cel,,,,,4.0,KT,9.0,KT,230.0,deg,1005.7,hPa,,,3.5,hPa,,,,,,2.0,,,,,,,,,,,,4000.0,m,5,okta,low,5.0,okta,1.0,5.0,3.0,h,2.0,,,
India,MM,Poona|Shivaji Nagar,Poona,43063.0,18.53333333333333,73.85,555.0,43063,12034,24.0,Cel,21.1,Cel,21.2,Cel,,,,,4.0,KT,3.0,KT,270.0,deg,1007.9,hPa,945.9,hPa,1.7,hPa,,,,,,2.0,,,,,,,,,,,,4000.0,m,4,okta,low,4.0,okta,1.0,2.0,3.0,h,6.0,,,
India,MM,Sholapur|Solapur,Sholapur,43117.0,17.666666666666668,75.9,479.0,43117,12034,25.0,Cel,22.7,Cel,22.3,Cel,,,,,4.0,KT,2.0,KT,230.0,deg,1007.9,hPa,,,,,,,,,,3.0,,,,,,,,,,,,10000.0,m,4,okta,middle,3.0,okta,2.0,,,,,,,
India,AP,Hyderabad|Secunderabad,Hyderabad / Begumpet AP | Begumpet AFS,43128.0,17.45,78.46666666666667,530.0,43128,12034,24.8,Cel,20.6,Cel,25.2,Cel,30.4,Cel,,,4.0,KT,5.0,KT,320.0,deg,1008.5,hPa,948.3,hPa,2.8,hPa,,,,,,3.0,,,,,,,,,,,,4000.0,m,7,okta,low,4.0,okta,1.0,5.0,3.0,h,2.0,,,
India,AP,Machilipatnam|Karameda,Machilipatnam,43185.0,16.2,81.15,3.05,43185,12034,30.0,Cel,24.8,Cel,28.0,Cel,34.5,Cel,,,4.0,KT,4.0,KT,250.0,deg,1006.8,hPa,1006.5,hPa,1.2,hPa,,,,,,3.0,,,,,,,,,,,,10000.0,m,4,okta,low,2.0,okta,2.0,,,,,,,
India,AP,Kakinada|Ramanayyapeta,Kakinada,43189.0,16.95,82.23333333333333,7.92,43189,12034,30.4,Cel,27.3,Cel,26.8,Cel,35.0,Cel,,,4.0,KT,0.0,KT,,,1007.6,hPa,1006.7,hPa,,,,,,,,3.0,,,,,,,,,,,,10000.0,m,3,okta,low,2.0,okta,2.0,,,,,,,
India,GA,Goa|Miramar,Goa / Panjim,43192.0,15.483333333333333,73.81666666666666,58.4,43192,12034,26.4,Cel,25.8,Cel,25.0,Cel,,,,,4.0,KT,0.0,KT,,,1009.6,hPa,,,2.2,hPa,,,,,,2.0,,,,,,,,,,,,4000.0,m,7,okta,low,3.0,okta,1.0,60.0,3.0,h,6.0,,,
India,KA,Belgaum|Sāmbre,Sambra,43198.0,15.85,74.61666666666666,747.0,43198,12034,22.6,Cel,20.5,Cel,19.4,Cel,26.4,Cel,,,4.0,KT,9.0,KT,270.0,deg,1009.3,hPa,927.1,hPa,2.0,hPa,,,,,,2.0,,,,,,,,,,,,4000.0,m,6,okta,low,4.0,okta,2.0,,,,,,,
India,KA,Gadag,Gadag,43201.0,15.416666666666666,75.63333333333334,670.0,43201,12034,24.2,Cel,21.0,Cel,19.8,Cel,29.6,Cel,,,4.0,KT,3.0,KT,200.0,deg,1007.1,hPa,935.2,hPa,1.4,hPa,,,,,,2.0,,,,,,,,,,,,10000.0,m,6,okta,low,4.0,okta,2.0,,,,,,,
India,AP,Kurnool,Kurnool,43213.0,15.8,78.06666666666666,280.0,43213,12034,26.8,Cel,21.7,Cel,23.8,Cel,33.6,Cel,,,4.0,KT,3.0,KT,270.0,deg,1007.9,hPa,976.5,hPa,,,,,,,,3.0,,,,,,,,,,,,10000.0,m,2,okta,,,,2.0,,,,,,,
India,KA,Chitradurga,Chitradurga,43233.0,14.233333333333333,76.43333333333334,733.0,43233,12034,23.0,Cel,20.6,Cel,21.1,Cel,28.7,Cel,,,4.0,KT,11.0,KT,250.0,deg,1011.2,hPa,929.6,hPa,1.6,hPa,,,,,,2.0,,,,,,,3.5,,,,,10000.0,m,7,okta,low,4.0,okta,2.0,,,,,,,
India,MM,Ratnagiri|Math,Ratnagiri,43110.0,16.983333333333334,73.33333333333333,90.5,43110,12034,25.4,Cel,23.6,Cel,24.1,Cel,,,,,4.0,KT,3.0,KT,140.0,deg,1009.5,hPa,,,2.2,hPa,,,,,,2.0,,,,,,,,,,,,4000.0,m,8,okta,low,6.0,okta,1.0,2.0,3.0,h,6.0,,,
India,MP,Pbo Raipur,Pbo Raipur,42874.0,21.23333333333333,81.65,296.0,42874,12034,27.8,Cel,24.6,Cel,24.7,Cel,,,,,4.0,KT,6.0,KT,200.0,deg,1003.3,hPa,,,3.7,hPa,,,,,,3.0,,,,,,,,,,,,4000.0,m,3,okta,low,2.0,okta,1.0,5.0,3.0,h,2.0,,,
India,TN,Chennai|Madras|Palavantangai,Chennai Intl AP,43279.0,12.997,80.1794,13.7,43279,12034,30.8,Cel,22.0,Cel,27.4,Cel,36.0,Cel,,,4.0,KT,6.0,KT,340.0,deg,1009.6,hPa,1007.9,hPa,1.8,hPa,,,,,,3.0,,,,,,,,,,,,10000.0,m,2,okta,low,1.0,okta,1.0,1.0,3.0,h,0.0,,,
India,RJ,Kota,Kota AD,42452.0,25.15,75.85,273.0,42452,12034,27.4,Cel,23.6,Cel,26.0,Cel,29.0,Cel,,,4.0,KT,4.0,KT,230.0,deg,1000.4,hPa,,,0.0,hPa,,,,,,2.0,,,,,,,,,,,,4000.0,m,7,okta,low,3.0,okta,1.0,10.0,3.0,h,2.0,,,
India,MP,Satna,Satna,42571.0,24.566666666666663,80.83333333333333,317.0,42571,12034,25.8,Cel,24.4,Cel,24.9,Cel,,,,,4.0,KT,0.0,KT,,,1001.0,hPa,,,5.1,hPa,,,,,,2.0,,,,,,,,,,,,4000.0,m,8,okta,low,6.0,okta,1.0,50.0,3.0,h,6.0,,,
India,MP,Guna,Guna,42559.0,24.65,77.31666666666666,480.0,42559,12034,23.4,Cel,23.1,Cel,23.0,Cel,,,,,4.0,KT,0.0,KT,,,1000.7,hPa,,,1.3,hPa,,,,,,2.0,,,,,,,,,,,,2000.0,m,8,okta,low,6.0,okta,1.0,95.0,3.0,h,9.0,,,
India,BR,Patna|Bankipur,Patna / Jai Prakash Narayan Intl AP,42492.0,25.6,85.16666666666667,51.0,42492,12034,30.4,Cel,27.9,Cel,28.4,Cel,,,,,4.0,KT,4.0,KT,110.0,deg,1003.9,hPa,,,2.2,hPa,,,,,,3.0,,,,,,,,,,,,4000.0,m,6,okta,low,6.0,okta,1.0,10.0,3.0,h,2.0,,,
India,MP,Indore,Indore Devi Ahilya Bai Holkar AP,42754.0,22.716666666666665,75.8,561.0,42754,12034,24.8,Cel,22.8,Cel,22.8,Cel,,,,,4.0,KT,10.0,KT,270.0,deg,1004.3,hPa,941.8,hPa,2.0,hPa,,,,,,2.0,,,,,,,,,,,,4000.0,m,6,okta,low,5.0,okta,1.0,5.0,3.0,h,2.0,,,
India,GJ,Rudramata|Kukma,Bhuj AFS,42634.0,23.25,69.8,78.0,42634,12034,28.0,Cel,24.3,Cel,25.5,Cel,,,,,4.0,KT,0.0,KT,,,1005.5,hPa,,,1.1,hPa,,,,,,2.0,,,,,,,,,,,,4000.0,m,3,okta,low,3.0,okta,2.0,,,,,,,
India,AS,Tezpur,Tezpur,42415.0,26.616666666666667,92.78333333333332,79.0,42415,12034,29.0,Cel,25.9,Cel,24.8,Cel,,,,,4.0,KT,0.0,KT,,,1006.1,hPa,,,-1.9,hPa,,,,,,2.0,,,,,,,,,,,,4000.0,m,5,okta,low,2.0,okta,2.0,,,,,,,
India,AS,Gauhati|Guwahati|Palāsbāri,Gauhati / Lokpriya Gopinath Bordoloi Intl AP|Mountain Shadow AFB | Guwahati AFS | Gauhati AFS,42410.0,26.1,91.58333333333331,54.0,42410,12034,30.6,Cel,26.7,Cel,25.6,Cel,,,,,4.0,KT,0.0,KT,,,1005.1,hPa,,,-0.5,hPa,,,,,,2.0,,,,,,,,,,,,4000.0,m,6,okta,low,3.0,okta,1.0,10.0,3.0,h,2.0,,,
India,MP,Pendra|Gaurela,Pendra,42779.0,22.766666666666666,81.9,624.0,42779,12034,25.0,Cel,23.9,Cel,22.4,Cel,,,,,4.0,KT,4.0,KT,270.0,deg,1004.1,hPa,935.8,hPa,4.5,hPa,,,,,,2.0,,,,,,,,,,,,2000.0,m,6,okta,low,4.0,okta,1.0,20.0,3.0,h,2.0,,,
India,MN,Imphal|Tulihal,Tulihal,42623.0,24.766666666666666,93.9,781.0,42623,12034,27.2,Cel,22.6,Cel,21.3,Cel,32.7,Cel,,,4.0,KT,2.0,KT,140.0,deg,1004.4,hPa,920.5,hPa,0.2,hPa,,,,,,3.0,,,,,,,,,,,,4000.0,m,6,okta,low,4.0,okta,1.0,10.0,3.0,h,2.0,,,
India,TR,Agartala|Nārāyanpur,Agartala AFS,42724.0,23.883333333333333,91.25,16.0,42724,12034,32.0,Cel,27.9,Cel,27.4,Cel,,,,,4.0,KT,0.0,KT,,,1002.7,hPa,,,-1.4,hPa,,,,,,2.0,,,,,,,,,,,,4000.0,m,6,okta,low,4.0,okta,1.0,10.0,3.0,h,2.0,,,
India,GJ,Ahmedabad|Hansol,Ahmedabad,42647.0,23.066666666666663,72.63333333333334,55.0,42647,12034,28.0,Cel,25.2,Cel,26.3,Cel,,,,,4.0,KT,3.0,KT,290.0,deg,1005.5,hPa,,,1.3,hPa,,,,,,3.0,,,,,,,,,,,,2000.0,m,7,okta,low,3.0,okta,1.0,10.0,3.0,h,2.0,,,
India,MP,Bhopal,Bhopal / Raja Bhoj AP|Bairagarh AP,42667.0,23.28333333333333,77.35,522.0,42667,12034,25.6,Cel,25.3,Cel,23.3,Cel,,,,,4.0,KT,10.0,KT,230.0,deg,1000.4,hPa,945.3,hPa,2.3,hPa,,,,,,2.0,,,,,,,,,,,,1000.0,m,8,okta,low,6.0,okta,1.0,10.0,3.0,h,6.0,,,
India,MP,Jabalpur,Jabalpur,42675.0,23.2,79.95,397.0,42675,12034,25.8,Cel,21.6,Cel,24.4,Cel,,,,,4.0,KT,4.0,KT,230.0,deg,1002.5,hPa,,,6.0,hPa,,,,,,2.0,,,,,,,,,,,,2000.0,m,8,okta,low,6.0,okta,1.0,5.0,3.0,h,2.0,,,
India,BR,Ranchi|Hatiā,Birsa Munda AP,42701.0,23.316666666666663,85.31666666666666,646.0,42701,12034,27.0,Cel,23.0,Cel,23.4,Cel,29.8,Cel,,,4.0,KT,6.0,KT,230.0,deg,1003.5,hPa,932.7,hPa,2.3,hPa,,,,,,3.0,,,,,,,,,,,,4000.0,m,2,okta,low,1.0,okta,1.0,10.0,3.0,h,0.0,,,
India,WB,Baghdogra|Bagdogra|Bāghdogra,Baghdogra AFS,42398.0,26.633333333333333,88.31666666666666,126.0,42398,12034,33.7,Cel,26.2,Cel,25.8,Cel,,,,,4.0,KT,2.0,KT,,,1003.4,hPa,,,-0.7,hPa,,,,,,2.0,,,,,,,,,,,,4000.0,m,4,okta,middle,3.0,okta,2.0,,,,,,,
India,BR,Jamshedpur|Sonari Town,Jamshedpur / AFLD,42798.0,22.816666666666663,86.18333333333334,142.0,42798,12034,30.6,Cel,25.2,Cel,26.0,Cel,,,,,4.0,KT,6.0,KT,290.0,deg,1003.8,hPa,,,1.6,hPa,,,,,,3.0,,,,,,,,,,,,2000.0,m,6,okta,low,3.0,okta,1.0,5.0,3.0,h,2.0,,,
India,WB,Kolkata|Calcutta|Gauripur,Kolkata / Netaji Subhash Chandra Bose International AP | Dum Dum AFS | Dum Dum AP,42809.0,22.65,88.45,6.0,42809,12034,30.6,Cel,28.4,Cel,29.0,Cel,,,,,4.0,KT,0.0,KT,,,1003.7,hPa,,,0.7,hPa,,,,,,3.0,,,,,,,,,,,,2000.0,m,8,okta,low,3.0,okta,1.0,10.0,3.0,h,2.0,,,
India,GJ,Surat|Salabatpura,Surat,42840.0,21.2,72.83333333333333,10.0,42840,12034,27.6,Cel,25.9,Cel,26.6,Cel,,,,,4.0,KT,0.0,KT,,,1006.4,hPa,,,1.3,hPa,,,,,,2.0,,,,,,,,,,,,4000.0,m,7,okta,low,5.0,okta,1.0,2.0,3.0,h,6.0,,,
India,MM,Nagpur|Dhantoli,Nagpur / Dr Baba Saheb Ambedkar Intl AP|Nagpur AFS|Sonegaon AFB,42867.0,21.1,79.05,310.0,42867,12034,26.8,Cel,23.6,Cel,23.6,Cel,,,,,4.0,KT,3.0,KT,250.0,deg,1005.9,hPa,,,4.0,hPa,,,,,,3.0,,,,,,,,,,,,4000.0,m,6,okta,low,3.0,okta,1.0,5.0,3.0,h,2.0,,,
India,GJ,Rajkot,Rajkot,42737.0,22.3,70.78333333333333,134.0,42737,12034,27.0,Cel,24.1,Cel,24.2,Cel,,,,,4.0,KT,8.0,KT,230.0,deg,1005.9,hPa,,,1.2,hPa,,,,,,3.0,,,,,,,,,,,,4000.0,m,1,okta,low,1.0,okta,2.0,,,,,,,
Israel,C,Tel Aviv|Maẖane Yisra’el,Ben Gurion Intl AP,40180.0,32.0,34.9,40.0,40180,12034,23.4,Cel,14.8,Cel,,,,,,,4.0,KT,2.0,KT,280.0,deg,1010.1,hPa,1005.4,hPa,,,2.0,,,,,4.0,,,,,,,0.0,,,,,10000.0,m,0,okta,,,,2.0,,,,,,,
Israel,S,Eilat|Elat|Eliat|Elait,Eliat AP|J Hozman AP,40199.0,29.55,34.95,13.1,40199,12034,28.2,Cel,13.3,Cel,,,,,,,4.0,KT,4.0,KT,360.0,deg,1010.4,hPa,1008.0,hPa,,,2.0,,,,,4.0,,,,,,,0.0,,,,,,,0,,,,,2.0,,,,,,,
Jordan,MF,Mafraq|Az Zubaydīyah,Mafraq AFB,40265.0,32.36666666666667,36.25,683.0,40265,12034,17.5,Cel,9.6,Cel,,,,,,,4.0,KT,0.0,KT,,,1012.4,hPa,936.5,hPa,,,2.0,,,,,4.0,,,,,,,,,,,,8000.0,m,1,okta,low,1.0,okta,1.0,5.0,3.0,h,0.0,,,
Jordan,AM,Amman|Mārkā,Amman / King Abdullah/Marka,40270.0,31.98333333333333,35.983333333333334,778.0,40270,12034,24.0,Cel,7.5,Cel,,,,,,,4.0,KT,2.0,KT,250.0,deg,1010.5,hPa,925.6,hPa,,,2.0,,,,,4.0,,,,,,,,,,,,6000.0,m,0,okta,,,,1.0,,,,,,,
Jordan,AM,Amman|Al Jīzah,Amman / Queen Alia Intl AP,40272.0,31.716666666666665,35.983333333333334,720.0,40272,12034,16.0,Cel,10.5,Cel,,,,,,,4.0,KT,4.0,KT,300.0,deg,1012.7,hPa,932.0,hPa,,,2.0,,,,,4.0,,,,,,,,,,,,5000.0,m,0,okta,,,,1.0,,,,,,,
Jordan,MN,Ma'an|Maan|isfīr al Maḩaṭṭah,Ma'an,40310.0,30.166666666666668,35.78333333333333,1069.0,40310,12034,,,,,,,,,,,4.0,KT,,,,,,,,,,,,,,,,,,,,,,,,,,,,,,0,,,,,,,,,,,,
Jordan,MN,Aqaba|Tall al Khalīfah,Aqaba / Intl AP|Aqaba New AP,40340.0,29.55,35.0,53.0,40340,12034,27.8,Cel,12.9,Cel,,,,,,,4.0,KT,5.0,KT,340.0,deg,1011.1,hPa,1005.0,hPa,,,,,,,,4.0,,,,,,,,,,,,10000.0,m,0,okta,,,,2.0,,,,,,,
Kazakhstan,KAR,Ulutau|Ulytaū,Ulutau,35563.0,48.65,67.0,632.0,35563,12034,11.2,Cel,5.7,Cel,,,,,,,4.0,KT,5.0,KT,50.0,deg,1024.5,hPa,950.6,hPa,,,2.0,,,,,3.0,,,,,,,,,,,,20000.0,m,0,okta,,,,2.0,,,,,,,
Kazakhstan,KAR,Kzyl-Zar|Qyzylzhar,Kzyl-Zar,35576.0,48.3,69.65,362.0,35576,12034,14.4,Cel,6.6,Cel,,,,,,,4.0,KT,4.0,KT,70.0,deg,1024.2,hPa,981.5,hPa,,,2.0,,,,,3.0,,,,,,,,,,,,20000.0,m,2,okta,middle,2.0,okta,2.0,,,,,,,
Kazakhstan,MAN,Sam,Sam,35925.0,45.02388888888889,55.74777777777778,86.5,35925,12034,14.2,Cel,5.0,Cel,,,,,,,4.0,KT,3.0,KT,50.0,deg,1019.3,hPa,1008.6,hPa,,,3.0,,,,,3.0,,,,,,,,,,,,20000.0,m,1,okta,,,,2.0,,,,,,,
Kazakhstan,35,Agadyr,Agadyr,35594.0,48.274092,72.836278,688.9,35594,12034,11.2,Cel,7.8,Cel,,,,,,,4.0,KT,3.0,KT,60.0,deg,1025.5,hPa,945.1,hPa,,,2.0,,,,,3.0,,,,,,,,,,,,50000.0,m,0,okta,,,,2.0,,,,,,,
Kazakhstan,ATY,Mahambet|Makhambet,Mahambet,35605.0,47.6667,51.5833,-15.0,35605,12034,16.3,Cel,4.1,Cel,,,,,,,4.0,KT,4.0,KT,50.0,deg,1022.2,hPa,1024.2,hPa,,,2.0,,,,,3.0,,,,,,,,,,,,20000.0,m,0,okta,,,,2.0,,,,,,,
Kazakhstan,AKT,Chelkar|Shalqar,Chelkar,35633.0,47.85,59.6167,176.0,35633,12034,16.8,Cel,3.1,Cel,,,,,,,4.0,KT,8.0,KT,60.0,deg,1022.7,hPa,1002.5,hPa,,,3.0,,,,,3.0,,,,,,,,,,,,20000.0,m,6,okta,middle,6.0,okta,2.0,,,,,,,
Kazakhstan,,Zhezkazgan,Zhezkazgan,35671.0,47.8,67.7166666667,344.7,35671,12034,13.7,Cel,8.1,Cel,,,,,,,4.0,KT,3.0,KT,20.0,deg,1022.7,hPa,981.8,hPa,,,2.0,,,,,3.0,,,,,,,,,,,,20000.0,m,2,okta,middle,2.0,okta,2.0,,,,,,,
Kazakhstan,KAR,Bektau-Ata|Tegystyk,Bektau-Ata,35699.0,47.45,74.81666666666666,620.0,35699,12034,12.6,Cel,7.4,Cel,,,,,,,4.0,KT,7.0,KT,50.0,deg,1024.0,hPa,952.0,hPa,,,3.0,,,,,3.0,,,,,,,,,,,,10000.0,m,0,okta,,,,2.0,,,,,,,
Kazakhstan,,Kulsary,Kulsary,35715.0,46.942222,53.985278,-12.0,35715,12034,18.2,Cel,5.5,Cel,,,,,,,4.0,KT,5.0,KT,80.0,deg,1021.1,hPa,1022.5,hPa,,,3.0,,,,,3.0,,,,,,,,,,,,50000.0,m,0,okta,,,,2.0,,,,,,,
Kazakhstan,,Ayakkum,Ayakkum,35739.0,46.550278,58.866667,111.0,35739,12034,17.0,Cel,9.3,Cel,,,,,,,4.0,KT,2.0,KT,50.0,deg,1019.8,hPa,1006.7,hPa,,,3.0,,,,,3.0,,,,,,,,,,,,50000.0,m,5,okta,low,2.0,okta,2.0,,,,,,,
Kazakhstan,KZY,Aralsk,Aralsk,35746.0,46.78,61.66,52.0,35746,12034,17.2,Cel,7.7,Cel,,,,,,,4.0,KT,6.0,KT,50.0,deg,1019.9,hPa,1013.6,hPa,,,3.0,,,,,3.0,,,,,,,,,,,,20000.0,m,0,okta,,,,2.0,,,,,,,
Kazakhstan,,Zhetykonur,Zhetykonur,35777.0,46.843333,68.348056,272.7,35777,12034,15.3,Cel,5.1,Cel,,,,,,,4.0,KT,3.0,KT,50.0,deg,1023.6,hPa,990.9,hPa,,,2.0,,,,,3.0,,,,,,,,,,,,10000.0,m,0,okta,,,,2.0,,,,,,,
Kazakhstan,KAR,Balkhash|Shashūbay,Balkhash,35796.0,46.8,75.08333333333333,350.0,35796,12034,14.6,Cel,7.6,Cel,,,,,,,4.0,KT,6.0,KT,70.0,deg,1023.3,hPa,982.0,hPa,,,2.0,,,,,3.0,,,,,,,,,,,,10000.0,m,0,okta,,,,2.0,,,,,,,
Kazakhstan,KZY,Kazalinsk|Qazaly,Kazalinsk,35849.0,45.75555555555555,62.10666666666667,66.11,35849,12034,12.9,Cel,4.3,Cel,,,,,,,4.0,KT,2.0,KT,40.0,deg,1018.1,hPa,1009.9,hPa,,,3.0,,,,,3.0,,,,,,,,,,,,20000.0,m,2,okta,,,,2.0,,,,,,,
Kazakhstan,,Saryshagan,Saryshagan,35895.0,46.114461,73.612969,358.0,35895,12034,15.6,Cel,12.4,Cel,,,,,,,4.0,KT,7.0,KT,50.0,deg,1022.4,hPa,980.5,hPa,,,2.0,,,,,3.0,,,,,,,,,,,,20000.0,m,4,okta,low,4.0,okta,2.0,,,,,,,
Kazakhstan,MAN,Kulaly Island|Kolmysh,Kulaly Island,35907.0,45.0167,50.0333,-22.0,35907,12034,18.9,Cel,10.2,Cel,,,,,,,4.0,KT,10.0,KT,100.0,deg,1016.0,hPa,1018.8,hPa,,,8.0,,,,,3.0,,,,,,,,,,,,20000.0,m,0,okta,,,,2.0,,,,,,,
Kazakhstan,,Beyneu,Beyneu,35927.0,45.329886,55.196247,3.0,35927,12034,16.9,Cel,4.4,Cel,,,,,,,4.0,KT,0.0,KT,,,,,1018.4,hPa,,,3.0,,,,,3.0,,,,,,,,,,,,20000.0,m,0,okta,,,,2.0,,,,,,,
Kazakhstan,KAR,Atasu|Zhaka-Arka,Atasu,35582.0,48.7,71.6333,488.0,35582,12034,12.3,Cel,8.1,Cel,,,,,,,4.0,KT,5.0,KT,90.0,deg,1025.9,hPa,968.4,hPa,,,2.0,,,,,3.0,,,,,,,,,,,,20000.0,m,0,okta,,,,2.0,,,,,,,
Kazakhstan,ATY,Atyrau,Gurev,35700.0,47.11666666666667,51.88333333333333,-23.7,35700,12034,17.4,Cel,5.1,Cel,,,,,,,4.0,KT,3.0,KT,80.0,deg,1021.5,hPa,1023.7,hPa,,,2.0,,,,,3.0,,,,,,,,,,,,20000.0,m,0,okta,,,,2.0,,,,,,,
Kazakhstan,ZAP,Kalmykovo|Taypaq,Kalmykovo,35406.0,49.05,51.86666666666667,2.0,35406,12034,15.4,Cel,7.5,Cel,,,,,,,4.0,KT,4.0,KT,90.0,deg,1025.1,hPa,1024.9,hPa,,,2.0,,,,,3.0,,,,,,,,,,,,10000.0,m,0,okta,,,,2.0,,,,,,,
Kazakhstan,,Karaulkeldy,Karaulkeldy,35522.0,48.685131,55.877125,200.0,35522,12034,13.5,Cel,2.9,Cel,,,,,,,4.0,KT,4.0,KT,60.0,deg,1025.4,hPa,1001.2,hPa,,,7.0,,,,,3.0,,,,,,,,,,,,20000.0,m,0,okta,,,,2.0,,,,,,,
Kazakhstan,ATY,Novyj Ustogan|Üshtaghan,Novyj Ustogan,34691.0,47.90555555555556,48.79055555555556,-11.1,34691,12034,15.8,Cel,3.0,Cel,,,,,,,4.0,KT,2.0,KT,90.0,deg,1021.8,hPa,1023.0,hPa,,,2.0,,,,,3.0,,,,,,,,,,,,20000.0,m,0,okta,,,,2.0,,,,,,,
Kazakhstan,KZY,Dzusaly|Zhosaly,Dzusaly,35953.0,45.51,64.09,99.0,35953,12034,16.0,Cel,3.7,Cel,,,,,,,4.0,KT,4.0,KT,40.0,deg,1018.3,hPa,1006.1,hPa,,,2.0,,,,,3.0,,,,,,,,,,,,50000.0,m,3,okta,,,,2.0,,,,,,,
Kazakhstan,ATY,Ganjushkino|Maloye Ganyushkino,Ganjushkino,34798.0,46.60527777777778,49.23805555555556,-24.5,34798,12034,17.0,Cel,7.2,Cel,,,,,,,4.0,KT,5.0,KT,50.0,deg,1019.1,hPa,1021.9,hPa,,,2.0,,,,,3.0,,,,,,,,,,,,10000.0,m,0,okta,,,,2.0,,,,,,,
Kazakhstan,ZAP,Dzambejty|Zhympīty,Dzambejty,35217.0,50.25,52.56666666666667,32.0,35217,12034,15.5,Cel,6.1,Cel,,,,,,,4.0,KT,3.0,KT,70.0,deg,1027.4,hPa,1023.5,hPa,,,2.0,,,,,3.0,,,,,,,,,,,,10000.0,m,3,okta,middle,3.0,okta,2.0,,,,,,,
Kazakhstan,ZAP,Capaevo|Chapaev,Capaevo,35302.0,50.2,51.16666666666666,17.0,35302,12034,14.2,Cel,8.4,Cel,,,,,,,4.0,KT,3.0,KT,100.0,deg,1026.6,hPa,1024.6,hPa,,,2.0,,,,,3.0,,,,,,,,,,,,20000.0,m,2,okta,,,,2.0,,,,,,,
Kazakhstan,AKT,Karabutak|Qarabutaq,Karabutak,35344.0,49.95,60.1333,229.0,35344,12034,12.0,Cel,8.8,Cel,,,,,,,4.0,KT,5.0,KT,40.0,deg,1028.5,hPa,1000.7,hPa,,,3.0,,,,,3.0,,,,,,,,,,,,50000.0,m,4,okta,low,2.0,okta,2.0,,,,,,,
Kazakhstan,KUS,Turgaj|Torghay,Turgaj,35358.0,49.63472222222222,63.48222222222222,132.83,35358,12034,15.2,Cel,6.5,Cel,,,,,,,4.0,KT,2.0,KT,20.0,deg,1026.6,hPa,1010.4,hPa,,,3.0,,,,,3.0,,,,,,,,,,,,10000.0,m,5,okta,middle,5.0,okta,2.0,,,,,,,
Kazakhstan,,Ekidyn,Ekidyn,35368.0,49.516817,66.150258,212.8,35368,12034,12.2,Cel,7.7,Cel,,,,,,,4.0,KT,4.0,KT,50.0,deg,1026.2,hPa,1000.4,hPa,,,2.0,,,,,3.0,,,,,,,,,,,,50000.0,m,0,okta,,,,2.0,,,,,,,
Kazakhstan,AKT,Irgiz|Yrghyz,Irgiz,35542.0,48.6167,61.2667,156.0,35542,12034,14.1,Cel,6.1,Cel,,,,,,,4.0,KT,5.0,KT,60.0,deg,1025.0,hPa,1010.9,hPa,,,2.0,,,,,3.0,,,,,,,,,,,,20000.0,m,5,okta,middle,5.0,okta,2.0,,,,,,,
Kazakhstan,KAR,Kazgorodok,Kazgorodok,35386.0,49.95,71.5833,413.0,35386,12034,11.0,Cel,4.4,Cel,,,,,,,4.0,KT,4.0,KT,40.0,deg,1028.8,hPa,978.5,hPa,,,2.0,,,,,3.0,,,,,,,,,,,,20000.0,m,0,okta,,,,2.0,,,,,,,
Kazakhstan,ZAP,Dzhangala,Dzhangala,35404.0,49.2167,50.3,6.0,35404,12034,15.7,Cel,8.0,Cel,,,,,,,4.0,KT,4.0,KT,100.0,deg,1024.7,hPa,1023.9,hPa,,,2.0,,,,,3.0,,,,,,,,,,,,20000.0,m,0,okta,,,,2.0,,,,,,,
Kazakhstan,AKT,Uil,Uil,35416.0,49.06555555555556,54.66222222222222,95.45,35416,12034,14.6,Cel,6.5,Cel,,,,,,,4.0,KT,4.0,KT,200.0,deg,1025.9,hPa,1014.3,hPa,,,2.0,,,,,3.0,,,,,,,,,,,,20000.0,m,1,okta,,,,2.0,,,,,,,
Kazakhstan,AKT,Temir-Gorod,Temir-Gorod,35426.0,49.14222222222222,57.12166666666667,233.52,35426,12034,12.6,Cel,6.8,Cel,,,,,,,4.0,KT,3.0,KT,40.0,deg,1026.7,hPa,998.6,hPa,,,3.0,,,,,3.0,,,,,,,,,,,,50000.0,m,0,okta,,,,2.0,,,,,,,
Kazakhstan,AKT,Emba,Emba,35437.0,48.8167,58.2167,230.0,35437,12034,12.5,Cel,7.6,Cel,,,,,,,4.0,KT,5.0,KT,30.0,deg,1026.0,hPa,995.8,hPa,,,2.0,,,,,3.0,,,,,,,,,,,,20000.0,m,2,okta,,,,2.0,,,,,,,
Kazakhstan,,Nura,Nura,35449.0,48.891111,62.301111,81.0,35449,12034,14.0,Cel,7.9,Cel,,,,,,,4.0,KT,7.0,KT,40.0,deg,1025.1,hPa,1015.2,hPa,,,3.0,,,,,3.0,,,,,,,,,,,,20000.0,m,1,okta,low,1.0,okta,2.0,,,,,,,
Kazakhstan,KAR,Zaryk|Saken Seyfullin,Zaryk,35497.0,48.85,72.86666666666666,656.0,35497,12034,11.4,Cel,6.5,Cel,,,,,,,4.0,KT,4.0,KT,50.0,deg,1026.3,hPa,949.6,hPa,,,2.0,,,,,3.0,,,,,,,,,,,,20000.0,m,0,okta,,,,2.0,,,,,,,
Kazakhstan,35,Aqsu-Ayuly,Aqsu-Ayuly MET STN,35498.0,48.768047,73.677392,724.0,35498,12034,10.8,Cel,4.8,Cel,,,,,,,4.0,KT,2.0,KT,40.0,deg,1024.7,hPa,940.4,hPa,,,7.0,,,,,3.0,,,,,,,,,,,,20000.0,m,0,okta,,,,2.0,,,,,,,
Kazakhstan,ATY,Karabau,Karabau,35514.0,48.45,52.9167,0.0,35514,12034,15.9,Cel,4.3,Cel,,,,,,,4.0,KT,4.0,KT,50.0,deg,1024.3,hPa,1024.7,hPa,,,2.0,,,,,3.0,,,,,,,,,,,,20000.0,m,0,okta,,,,2.0,,,,,,,
Kazakhstan,KAR,Karaganda|Fëdorovka,Karaganda,35394.0,49.8,73.15,553.0,35394,12034,9.7,Cel,5.6,Cel,,,,,,,4.0,KT,4.0,KT,30.0,deg,1028.7,hPa,963.0,hPa,,,2.0,,,,,3.0,,,,,,,,,,,,20000.0,m,2,okta,,,,2.0,,,,,,,
Kazakhstan,YUZ,Zlikha,Zlikha,35969.0,45.221944444444446,67.87638888888888,131.0,35969,12034,16.4,Cel,2.2,Cel,,,,,,,4.0,KT,2.0,KT,90.0,deg,1019.3,hPa,1002.8,hPa,,,2.0,,,,,3.0,,,,,,,,,,,,50000.0,m,0,okta,,,,2.0,,,,,,,
Kazakhstan,ALM,Panfilov|Sadykyuzy,Panfilov,36859.0,44.16277777777778,80.04583333333333,641.0,36859,12034,15.8,Cel,7.6,Cel,,,,,,,4.0,KT,0.0,KT,,,1018.3,hPa,944.7,hPa,,,7.0,,,,,3.0,,,,,,,,,,,,50000.0,m,2,okta,middle,2.0,okta,2.0,,,,,,,
Kazakhstan,KAR,Karkaralinsk|Qarqaraly,Karkaralinsk,36335.0,49.3833,75.5167,812.0,36335,12034,6.9,Cel,3.5,Cel,,,,,,,4.0,KT,4.0,KT,360.0,deg,1029.0,hPa,929.4,hPa,,,2.0,,,,,3.0,,,,,,,,,,,,50000.0,m,6,okta,low,5.0,okta,2.0,,,,,,,
Kazakhstan,,Lepsi,Lepsi,36796.0,45.524389,80.608861,1012.0,36796,12034,6.9,Cel,5.6,Cel,,,,,,,4.0,KT,0.0,KT,,,1023.7,hPa,905.0,hPa,,,7.0,850.0,hPa,1524.0,gpm,3.0,,,,,,,,,,,,200.0,m,0,okta,,,,1.0,45.0,3.0,h,4.0,,,
Kazakhstan,,Alakol,Alakol,36803.0,45.954722,81.566389,361.0,36803,12034,18.8,Cel,11.6,Cel,,,,,,,4.0,KT,6.0,KT,280.0,deg,1017.8,hPa,976.1,hPa,,,8.0,,,,,3.0,,,,,,,,,,,,50000.0,m,6,okta,low,6.0,okta,2.0,,,,,,,
Kazakhstan,,Zhalanashkol,Zhalanashkol,36806.0,45.591056,82.176306,377.0,36806,12034,18.8,Cel,4.9,Cel,,,,,,,4.0,KT,2.0,KT,320.0,deg,1017.9,hPa,974.4,hPa,,,3.0,,,,,3.0,,,,,,,,,,,,50000.0,m,7,okta,middle,7.0,okta,2.0,,,,,,,
Kazakhstan,,Aydarly,Aydarly,36819.0,44.191864,75.8282,498.0,36819,12034,13.8,Cel,3.1,Cel,,,,,,,4.0,KT,1.0,KT,230.0,deg,1019.0,hPa,960.9,hPa,,,8.0,,,,,3.0,,,,,,,,,,,,20000.0,m,3,okta,,,,2.0,,,,,,,
Kazakhstan,ALM,Bakanas,Bakanas,36821.0,44.81166666666667,76.2538888888889,395.59,36821,12034,15.2,Cel,8.1,Cel,,,,,,,4.0,KT,3.0,KT,50.0,deg,1019.3,hPa,973.1,hPa,,,4.0,,,,,3.0,,,,,,,,,,,,50000.0,m,0,okta,,,,2.0,,,,,,,
Kazakhstan,ALM,Sari-Ozek|Saryözek,Sari-Ozek,36839.0,44.35,77.967,948.0,36839,12034,9.9,Cel,5.1,Cel,,,,,,,4.0,KT,1.0,KT,60.0,deg,1019.4,hPa,911.0,hPa,,,7.0,,,,,3.0,,,,,,,,,,,,50000.0,m,0,okta,,,,2.0,,,,,,,
Kazakhstan,,Tekeli,Tekeli,36843.0,44.871111,78.728889,988.0,36843,12034,15.0,Cel,3.8,Cel,,,,,,,4.0,KT,2.0,KT,230.0,deg,1017.4,hPa,906.7,hPa,,,7.0,,,,,3.0,,,,,,,,,,,,20000.0,m,0,okta,,,,2.0,,,,,,,
Kazakhstan,ALM,Kugali|Kugaly,Kugali,36846.0,44.467,78.667,1385.0,36846,12034,9.3,Cel,3.3,Cel,,,,,,,4.0,KT,2.0,KT,50.0,deg,1022.1,hPa,863.2,hPa,,,6.0,850.0,hPa,1524.0,gpm,3.0,,,,,,,,,,,,50000.0,m,0,okta,,,,2.0,,,,,,,
Kazakhstan,ALA,Almaty (Alma-Ata)|Gornyy Gigant,Almaty (Alma-Ata) / City,36870.0,43.239444444444445,76.93277777777777,846.87,36870,12034,16.0,Cel,10.1,Cel,,,,,,,4.0,KT,0.0,KT,,,1016.0,hPa,920.8,hPa,,,7.0,,,,,3.0,,,,,,,,,,,,10000.0,m,0,okta,,,,2.0,,,,,,,
Kazakhstan,,Aksengir,Aksengir,36874.0,43.495278,76.274167,642.0,36874,12034,12.0,Cel,5.5,Cel,,,,,,,4.0,KT,1.0,KT,180.0,deg,1018.5,hPa,944.3,hPa,,,7.0,,,,,3.0,,,,,,,,,,,,50000.0,m,0,okta,,,,2.0,,,,,,,
Kazakhstan,,Uzynagash,Uzynagash,36877.0,43.233628,76.299714,813.0,36877,12034,13.7,Cel,6.0,Cel,,,,,,,4.0,KT,0.0,KT,,,1018.5,hPa,925.8,hPa,,,7.0,,,,,3.0,,,,,,,,,,,,50000.0,m,0,okta,,,,2.0,,,,,,,
Kazakhstan,ALM,Issik|Esik,Issik,36885.0,43.35,77.467,1098.0,36885,12034,14.9,Cel,6.4,Cel,,,,,,,4.0,KT,0.0,KT,,,1017.3,hPa,910.6,hPa,,,7.0,,,,,3.0,,,,,,,,,,,,50000.0,m,0,okta,,,,2.0,,,,,,,
Kazakhstan,,Mynzhilki,Mynzhilki,36889.0,43.085275,77.077111,3017.0,36889,12034,1.8,Cel,-13.3,Cel,,,,,,,4.0,KT,1.0,KT,180.0,deg,1030.9,hPa,708.8,hPa,,,8.0,700.0,hPa,3115.0,gpm,3.0,,,,,,,,,,,,50000.0,m,0,okta,,,,2.0,,,,,,,
Kazakhstan,ALM,Malibay(?)|Shelek,Malibay(?),36894.0,43.6,78.25,608.0,36894,12034,15.8,Cel,7.4,Cel,,,,,,,4.0,KT,0.0,KT,,,1017.8,hPa,948.2,hPa,,,4.0,,,,,3.0,,,,,,,,,,,,50000.0,m,0,okta,,,,2.0,,,,,,,
Kazakhstan,ALM,Podgornoje,Podgornoje,36905.0,43.3167,79.4833,1273.0,36905,12034,13.9,Cel,4.6,Cel,,,,,,,4.0,KT,1.0,KT,90.0,deg,1019.3,hPa,876.0,hPa,,,7.0,850.0,hPa,1526.0,gpm,3.0,,,,,,,,,,,,50000.0,m,0,okta,,,,2.0,,,,,,,
Kazakhstan,ALM,Narynkol,Narynkol,36953.0,42.733,80.167,1807.0,36953,12034,8.1,Cel,3.7,Cel,,,,,,,4.0,KT,0.0,KT,,,1020.9,hPa,823.1,hPa,,,7.0,850.0,hPa,1508.0,gpm,3.0,,,,,,,,,,,,50000.0,m,2,okta,low,2.0,okta,2.0,,,,,,,
Kazakhstan,ZAP,Zhänibek,Zhänibek,34473.0,49.433,46.85,23.0,34473,12034,15.2,Cel,5.7,Cel,,,,,,,4.0,KT,4.0,KT,90.0,deg,1023.1,hPa,1019.4,hPa,,,2.0,,,,,3.0,,,,,,,,,,,,10000.0,m,1,okta,,,,2.0,,,,,,,
Kazakhstan,ALM,Sarkand,Sarkand,36786.0,45.4167,79.9,1113.0,36786,12034,13.0,Cel,7.5,Cel,,,,,,,4.0,KT,2.0,KT,20.0,deg,1019.8,hPa,932.8,hPa,,,3.0,,,,,3.0,,,,,,,,,,,,50000.0,m,2,okta,low,2.0,okta,2.0,,,,,,,
Kazakhstan,,Taldykorgan,Taldykorgan,36770.0,45.023206,78.436186,594.0,36770,12034,14.7,Cel,8.1,Cel,,,,,,,4.0,KT,0.0,KT,,,1018.6,hPa,950.1,hPa,,,7.0,,,,,3.0,,,,,,,,,,,,50000.0,m,0,okta,,,,2.0,,,,,,,
Kazakhstan,,Aul 4,Aul 4,36744.0,45.457764,75.206806,362.0,36744,12034,15.6,Cel,9.1,Cel,,,,,,,4.0,KT,6.0,KT,70.0,deg,1020.5,hPa,978.2,hPa,,,4.0,,,,,3.0,,,,,,,,,,,,20000.0,m,0,okta,,,,2.0,,,,,,,
Kazakhstan,,Bakty,Bakty,36736.0,48.659444,82.733333,441.0,36736,12034,17.0,Cel,10.1,Cel,,,,,,,4.0,KT,1.0,KT,40.0,deg,1017.3,hPa,965.7,hPa,,,7.0,,,,,3.0,,,,,,,,,,,,50000.0,m,5,okta,low,2.0,okta,2.0,,,,,,,
Kazakhstan,VOS,Kajnar|Qaynar,Kajnar,36358.0,49.2,77.3667,842.0,36358,12034,5.8,Cel,2.3,Cel,,,,,,,4.0,KT,2.0,KT,360.0,deg,1028.1,hPa,928.8,hPa,,,2.0,,,,,3.0,,,,,,,,,,,,50000.0,m,6,okta,low,6.0,okta,2.0,,,,,,,
Kazakhstan,VOS,Carskaja|Shar,Carskaja,36394.0,49.5833,81.05,334.0,36394,12034,6.9,Cel,4.1,Cel,,,,,,,4.0,KT,7.0,KT,290.0,deg,1022.9,hPa,981.9,hPa,,,7.0,,,,,3.0,,,,,,,,,,,,10000.0,m,7,okta,low,7.0,okta,2.0,,,,,,,
Kazakhstan,VOS,Zangiz-Tobe|Zhalghyztobe,Zangiz-Tobe,36397.0,49.21666666666667,81.21666666666667,455.7,36397,12034,7.4,Cel,2.3,Cel,,,,,,,4.0,KT,8.0,KT,340.0,deg,1022.9,hPa,968.2,hPa,,,7.0,,,,,3.0,,,,,,,,,,,,50000.0,m,6,okta,low,5.0,okta,2.0,,,,,,,
Kazakhstan,,Ust-kamenogorsk,Ust-kamenogorsk,36403.0,49.916667,82.583333,284.0,36403,12034,7.3,Cel,3.3,Cel,,,,,,,4.0,KT,3.0,KT,270.0,deg,1019.8,hPa,984.9,hPa,,,3.0,,,,,3.0,,,,,,,,,,,,20000.0,m,7,okta,low,4.0,okta,2.0,,,,,,,
Kazakhstan,VOS,Samarskoe,Samarskoe,36418.0,49.033,83.383,0.0,36418,12034,9.1,Cel,2.7,Cel,,,,,,,4.0,KT,2.0,KT,180.0,deg,1018.4,hPa,959.5,hPa,,,2.0,,,,,3.0,,,,,,,,,,,,50000.0,m,7,okta,low,6.0,okta,2.0,,,,,,,
Kazakhstan,VOS,Bol'soe Narymskoe|Ülkennaryn,Bol'soe Narymskoe,36428.0,49.2,84.51666666666667,402.31,36428,12034,11.1,Cel,5.3,Cel,,,,,,,4.0,KT,2.0,KT,170.0,deg,1018.0,hPa,970.4,hPa,,,2.0,,,,,3.0,,,,,,,,,,,,50000.0,m,7,okta,low,4.0,okta,2.0,,,,,,,
Kazakhstan,VOS,Katon-Karagaj|Altay,Katon-Karagaj,36439.0,49.1833,85.6167,1081.0,36439,12034,7.1,Cel,5.0,Cel,,,,,,,4.0,KT,3.0,KT,280.0,deg,1019.2,hPa,895.0,hPa,,,3.0,850.0,hPa,1489.0,gpm,3.0,,,,,,,,,,,,20000.0,m,7,okta,low,6.0,okta,2.0,,,,,,,
Kazakhstan,,Barshatas,Barshatas,36498.0,48.159444,78.633333,646.0,36498,12034,8.3,Cel,1.1,Cel,,,,,,,4.0,KT,7.0,KT,10.0,deg,1024.6,hPa,948.2,hPa,,,2.0,,,,,3.0,,,,,,,,,,,,20000.0,m,6,okta,low,5.0,okta,2.0,,,,,,,
Kazakhstan,ZHA,Ciganak|Shyghanaq,Ciganak,35997.0,45.1,73.9667,349.0,35997,12034,15.4,Cel,7.1,Cel,,,,,,,4.0,KT,3.0,KT,70.0,deg,1020.2,hPa,979.3,hPa,,,3.0,,,,,3.0,,,,,,,,,,,,20000.0,m,0,okta,,,,2.0,,,,,,,
Kazakhstan,,Karauyl,Karauyl,36501.0,48.956667,79.233333,613.0,36501,12034,6.6,Cel,2.6,Cel,,,,,,,4.0,KT,4.0,KT,320.0,deg,1025.6,hPa,952.4,hPa,,,4.0,,,,,3.0,,,,,,,,,,,,50000.0,m,3,okta,middle,3.0,okta,2.0,,,,,,,
Kazakhstan,VOS,Kurcum|Kurchum,Kurcum,36546.0,48.55,83.6833,427.0,36546,12034,15.9,Cel,6.9,Cel,,,,,,,4.0,KT,2.0,KT,220.0,deg,1017.7,hPa,967.3,hPa,,,3.0,,,,,3.0,,,,,,,,,,,,50000.0,m,6,okta,low,4.0,okta,2.0,,,,,,,
Kazakhstan,VOS,Zuz-Agac|Zhuz-Agach,Zuz-Agac,36619.0,47.0833,79.7167,381.0,36619,12034,13.7,Cel,5.8,Cel,,,,,,,4.0,KT,4.0,KT,320.0,deg,,,,,,,,,,,,3.0,,,,,,,,,,,,50000.0,m,0,okta,,,,2.0,,,,,,,
Kazakhstan,VOS,Ajaguz|Ayagoz,Ajaguz,36622.0,47.9667,80.45,655.0,36622,12034,8.4,Cel,0.7,Cel,,,,,,,4.0,KT,5.0,KT,340.0,deg,1023.2,hPa,945.7,hPa,,,3.0,,,,,3.0,,,,,,,,,,,,20000.0,m,6,okta,low,3.0,okta,2.0,,,,,,,
Kazakhstan,VOS,Urdzar|Ürzhar,Urdzar,36639.0,47.11666666666667,81.61666666666666,489.0,36639,12034,15.7,Cel,6.5,Cel,,,,,,,4.0,KT,0.0,KT,,,1016.1,hPa,959.5,hPa,,,7.0,,,,,3.0,,,,,,,,,,,,50000.0,m,2,okta,middle,2.0,okta,2.0,,,,,,,
Kazakhstan,VOS,Aksuat|Aqsūat,Aksuat,36643.0,47.8,82.8333,535.0,36643,12034,10.8,Cel,0.0,Cel,,,,,,,4.0,KT,7.0,KT,290.0,deg,1021.1,hPa,957.9,hPa,,,1.0,,,,,3.0,,,,,,,,,,,,50000.0,m,2,okta,middle,1.0,okta,2.0,,,,,,,
Kazakhstan,VOS,Zajsan|Zaysan,Zajsan,36665.0,47.4667,84.9167,603.0,,12034,,,,,,,,,,,,,,,,,,,,,,,,,,,,,,,,,,,,,,,,,,0,,,,,,,,,,,,
Kazakhstan,63,Tugyl,Tugyl,36666.0,47.733333,84.183333,397.0,36666,12034,13.2,Cel,-0.8,Cel,,,,,,,4.0,KT,8.0,KT,270.0,deg,1020.1,hPa,973.5,hPa,,,2.0,,,,,3.0,,,,,,,,,,,,50000.0,m,3,okta,low,2.0,okta,2.0,,,,,,,
Kazakhstan,ALM,Usharal|Üsharal,Usharal,36729.0,46.1667,80.9333,388.0,36729,12034,14.1,Cel,4.5,Cel,,,,,,,4.0,KT,3.0,KT,230.0,deg,1019.5,hPa,974.0,hPa,,,2.0,,,,,3.0,,,,,,,,,,,,20000.0,m,5,okta,middle,5.0,okta,2.0,,,,,,,
Kazakhstan,VOS,Kokpekty|Kökpekti,Kokpekty,36535.0,48.75,82.36666666666666,511.0,36535,12034,7.6,Cel,1.6,Cel,,,,,,,4.0,KT,4.0,KT,310.0,deg,1021.1,hPa,960.1,hPa,,,3.0,,,,,3.0,,,,,,,,,,,,50000.0,m,6,okta,low,3.0,okta,2.0,,,,,,,
Kazakhstan,ZAP,Furmanovo|Zhalpaqtal,Furmanovo,34398.0,49.66666666666666,49.48333333333333,10.0,34398,12034,14.9,Cel,5.5,Cel,,,,,,,4.0,KT,4.0,KT,110.0,deg,1024.8,hPa,1023.8,hPa,,,2.0,,,,,3.0,,,,,,,,,,,,20000.0,m,0,okta,,,,2.0,,,,,,,
Kazakhstan,VOS,Ziryanovsk|Zyryanovsk,Ziryanovsk,36421.0,49.717,84.283,492.0,36421,12034,9.5,Cel,4.4,Cel,,,,,,,4.0,KT,2.0,KT,320.0,deg,1018.2,hPa,964.3,hPa,,,3.0,,,,,3.0,,,,,,,,,,,,50000.0,m,8,okta,,,,2.0,,,,,,,
Kuwait,KU,Kuwait City|Al Murqāb,Kuwait Intl AP SYN STN|KIA,40582.0,29.221666666666668,47.965833333333336,46.2,,12034,,,,,,,,,,,,,,,,,,,,,,,,,,,,,,,,,,,,,,,,,,0,,,,,,,,,,,,
Kyrgyzstan,SU,Ura-Tjube|Bobotago,Ura-Tjube / Mountain,38713.0,39.9,68.98333333333333,1005.0,38713,12034,16.8,Cel,3.4,Cel,9.9,Cel,,,,,4.0,KT,1.0,KT,180.0,deg,1014.4,hPa,900.6,hPa,,,4.0,850.0,hPa,1500.0,gpm,3.0,,,,,,,,,,,,20000.0,m,3,okta,,,,2.0,,,,,,,
Kyrgyzstan,C,Tokmak|Chuy,Tokmak,36911.0,42.833333333333336,75.28333333333333,816.0,36911,12034,15.2,Cel,8.5,Cel,8.0,Cel,,,,,4.0,KT,0.0,KT,,,1018.8,hPa,926.1,hPa,,,3.0,,,,,1.0,,,,,,,,,,,,50000.0,m,0,okta,,,,2.0,,,,,,,
Kyrgyzstan,Y,Rybacje|Balykchy,Rybacje,36927.0,42.4667,76.1833,1660.0,36927,12034,12.1,Cel,4.5,Cel,6.6,Cel,,,,,4.0,KT,2.0,KT,320.0,deg,1021.0,hPa,836.8,hPa,,,8.0,850.0,hPa,1530.0,gpm,1.0,,,,,,,,,,,,50000.0,m,0,okta,,,,2.0,,,,,,,
Kyrgyzstan,N,Dolon Pass|Karaynkurt,Dolon Pass,36963.0,41.8,75.7667,3040.0,36963,12034,2.3,Cel,-3.7,Cel,,,,,,,4.0,KT,2.0,KT,160.0,deg,,,707.3,hPa,,,4.0,850.0,hPa,,,1.0,,,,,,,,,,,,50000.0,m,0,okta,,,,2.0,,,,,,,
Kyrgyzstan,N,Naryn,Naryn / Mountain,36974.0,41.43333333333333,76.0,2039.0,36974,12034,9.4,Cel,1.5,Cel,,,,,,,4.0,KT,2.0,KT,90.0,deg,1022.3,hPa,798.8,hPa,,,8.0,850.0,hPa,1526.0,gpm,1.0,,,,,,,,,,,,20000.0,m,0,okta,,,,2.0,,,,,,,
Kyrgyzstan,Y,Tjan-San|Yshtyk,Tjan-San / Mountain,36982.0,41.88333333333333,78.23333333333333,3635.0,36982,12034,-0.1,Cel,-6.1,Cel,-6.6,Cel,,,,,4.0,KT,1.0,KT,60.0,deg,1036.2,hPa,658.0,hPa,,,3.0,700.0,hPa,3134.0,gpm,1.0,,,,,,,,,,,,50000.0,m,0,okta,,,,2.0,,,,,,,
Kyrgyzstan,Y,Colpon-Ata|Cholpon-Ata,Colpon-Ata,36934.0,42.65,77.1,1616.0,36934,12034,13.4,Cel,5.6,Cel,,,,,,,4.0,KT,2.0,KT,90.0,deg,1004.7,hPa,827.5,hPa,,,3.0,850.0,hPa,1402.0,gpm,1.0,,,,,,,,,,,,50000.0,m,3,okta,low,2.0,okta,2.0,,,,,,,
Kyrgyzstan,GB,Bishkek|Pishpek|Frunze|Ak-Orgo,Manas Intl AP,38353.0,42.85,74.53333333333333,756.0,38353,12034,16.8,Cel,7.1,Cel,8.5,Cel,,,,,4.0,KT,0.0,KT,,,1015.4,hPa,929.9,hPa,,,3.0,,,,,1.0,,,,,,,,,,,,20000.0,m,0,okta,,,,2.0,,,,,,,
Kyrgyzstan,J,Dzalal-Abad|Ladan Kara,Dzalal-Abad,38613.0,40.91666666666666,72.95,764.0,38613,12034,17.2,Cel,1.5,Cel,11.8,Cel,,,,,4.0,KT,2.0,KT,10.0,deg,1012.0,hPa,,,,,7.0,,,,,1.0,,,,,,,,,,,,50000.0,m,0,okta,,,,2.0,,,,,,,
Kyrgyzstan,-,Kara-Suu|Kutchi,Kara-Suu,38616.0,40.7,72.9,867.0,38616,12034,18.0,Cel,7.8,Cel,,,,,,,4.0,KT,0.0,KT,,,1011.9,hPa,915.7,hPa,,,3.0,,,,,1.0,,,,,,,,,,,,20000.0,m,0,okta,,,,2.0,,,,,,,
Kyrgyzstan,T,Talas|Ioganesdorf,Talas,38345.0,42.516666666666666,72.21666666666667,1217.0,38345,12034,13.3,Cel,0.2,Cel,7.2,Cel,,,,,4.0,KT,1.0,KT,90.0,deg,1016.3,hPa,879.1,hPa,,,7.0,850.0,hPa,1498.0,gpm,1.0,,,,,,,,,,,,50000.0,m,0,okta,,,,2.0,,,,,,,
Lebanon,JL,Beirut|Mudawwarah,Beirut / Intl AP,40100.0,33.81666666666667,35.483333333333334,29.0,40100,12034,29.0,Cel,10.0,Cel,,,,,,,4.0,KT,7.0,KT,,,1010.9,hPa,1009.4,hPa,,,6.0,,,,,4.0,,,,,,,,,,,,40000.0,m,0,okta,,,,3.0,,,,,,,
Maldives,-,Hanimadu|Hanimaadhoo,Hanimadu,43533.0,6.746388888888889,73.1686111111111,1.4,43533,12034,22.0,Cel,17.4,Cel,20.0,Cel,,,,,4.0,KT,0.0,KT,,,1002.6,hPa,912.9,hPa,-1.8,hPa,,850.0,hPa,1426.0,gpm,2.0,0.0,,,,,,,mm,,,,10000.0,m,0,okta,,,,2.0,,,,,,,
Moldova,UN,Kornesty|Pojarna,Kornesty,33748.0,47.35611111111111,28.008333333333333,232.0,33748,12034,16.6,Cel,16.4,Cel,,,,,,,4.0,KT,3.0,KT,130.0,deg,1006.3,hPa,979.2,hPa,,,7.0,,,,,4.0,,,,,,,,,,,,10000.0,m,8,okta,,,,2.0,,,,,,,
Moldova,VA,Leovo,Leovo,33881.0,46.475,28.259166666666665,158.0,33881,12034,16.6,Cel,15.9,Cel,,,,,,,4.0,KT,3.0,KT,100.0,deg,1006.6,hPa,987.9,hPa,,,8.0,,,,,4.0,,,,,,,,,,,,10000.0,m,7,okta,low,7.0,okta,2.0,,,,,,,
Moldova,BR,Bricany,Bricany,33664.0,48.359722222222224,27.08111111111111,261.0,33664,12034,17.0,Cel,17.0,Cel,,,,,,,4.0,KT,1.0,KT,80.0,deg,1005.8,hPa,975.8,hPa,,,7.0,,,,,4.0,,,,,,,,,,,,4000.0,m,8,okta,,,,1.0,25.0,3.0,h,8.0,,,
Moldova,SO,Soroki|Cosăuţi,Soroki,33678.0,48.16666666666666,28.3,172.0,33678,12034,16.7,Cel,16.5,Cel,,,,,,,4.0,KT,2.0,KT,280.0,deg,1008.1,hPa,987.8,hPa,,,7.0,,,,,4.0,,,,,,,,,,,,4000.0,m,7,okta,low,5.0,okta,1.0,25.0,3.0,h,2.0,,,
Moldova,-,Kamenka,Kamenka,33679.0,48.03333333333333,28.7,154.0,33679,12034,17.9,Cel,16.9,Cel,,,,,,,4.0,KT,1.0,KT,80.0,deg,1008.0,hPa,989.9,hPa,,,3.0,,,,,4.0,,,,,,,,,,,,10000.0,m,8,okta,,,,1.0,80.0,3.0,h,8.0,,,
Moldova,BA,Bel'Cy|Staraya Slobodzeya,Bel'Cy,33745.0,47.75388888888889,27.918333333333333,156.0,33745,12034,17.3,Cel,17.3,Cel,,,,,,,4.0,KT,0.0,KT,,,1007.5,hPa,989.1,hPa,,,3.0,,,,,4.0,,,,,,,,,,,,10000.0,m,8,okta,low,6.0,okta,2.0,,,,,,,
Moldova,-,Voronkovo|Rîbniţa,Voronkovo,33754.0,47.766666666666666,29.016666666666666,119.0,33754,12034,17.8,Cel,17.1,Cel,,,,,,,4.0,KT,0.0,KT,,,1006.9,hPa,993.0,hPa,,,4.0,,,,,4.0,,,,,,,,,,,,10000.0,m,7,okta,low,3.0,okta,1.0,25.0,3.0,h,8.0,,,
Moldova,GA,Komrat|Comrat,Komrat,33883.0,46.297222222222224,28.641944444444444,133.0,33883,12034,17.0,Cel,17.0,Cel,,,,,,,4.0,KT,1.0,KT,170.0,deg,1006.5,hPa,991.0,hPa,,,7.0,,,,,4.0,,,,,,,,,,,,10000.0,m,8,okta,,,,2.0,,,,,,,
Moldova,CA,Kagul|Burtovka,Kagul,33885.0,45.88333333333333,28.23333333333333,110.0,33885,12034,17.2,Cel,17.1,Cel,,,,,,,4.0,KT,2.0,KT,160.0,deg,1007.5,hPa,994.6,hPa,,,4.0,,,,,4.0,,,,,,,,,,,,4000.0,m,8,okta,middle,8.0,okta,1.0,10.0,3.0,h,1.0,,,
Moldova,SV,Tiraspol|Semionovca,Tiraspol,33892.0,46.51416666666667,29.650277777777777,173.0,33892,12034,16.1,Cel,16.1,Cel,,,,,,,4.0,KT,2.0,KT,140.0,deg,1006.9,hPa,986.5,hPa,,,7.0,,,,,4.0,,,,,,,,,,,,10000.0,m,6,okta,middle,6.0,okta,2.0,,,,,,,
Moldova,IA,Chisinau|Valea Coloniţei,Chisinau,33815.0,46.97138888888889,28.848333333333333,168.0,33815,12034,17.0,Cel,16.5,Cel,,,,,,,4.0,KT,1.0,KT,130.0,deg,1006.5,hPa,986.7,hPa,,,7.0,,,,,4.0,,,,,,,,,,,,4000.0,m,8,okta,,,,1.0,10.0,3.0,h,2.0,,,
Mongolia,043,Baitag|Bürenhayrhan,Baitag,44265.0,46.094722222222224,91.55222222222224,1184.2,44265,12034,16.4,Cel,2.4,Cel,,,,,,,4.0,KT,4.0,KT,300.0,deg,1017.2,hPa,884.4,hPa,,,3.0,,,,,3.0,,,,,,,,,,,,50000.0,m,8,okta,middle,8.0,okta,2.0,,,,,,,
Mongolia,,Durvuljin,Durvuljin,44219.0,47.6464,94.999,1391.4,44219,12034,14.7,Cel,-1.8,Cel,,,,,,,4.0,KT,1.0,KT,310.0,deg,1015.6,hPa,861.2,hPa,,,2.0,,,,,3.0,,,,,,,,,,,,50000.0,m,6,okta,low,2.0,okta,2.0,,,,,,,
Mongolia,43,Hovdo|Khovd,Hovdo,44218.0,47.99583333333333,91.6325,1405.0,44218,12034,15.6,Cel,-0.1,Cel,,,,,,,4.0,KT,2.0,KT,90.0,deg,1015.6,hPa,860.1,hPa,,,7.0,,,,,3.0,,,,,,,,,,,,50000.0,m,7,okta,middle,7.0,okta,2.0,,,,,,,
Mongolia,,Yalalt,Yalalt,44217.0,48.2993,89.5149,2137.0,44217,12034,8.4,Cel,-0.9,Cel,,,,,,,4.0,KT,2.0,KT,230.0,deg,1020.4,hPa,786.8,hPa,,,8.0,,,,,3.0,,,,,,,,,,,,20000.0,m,7,okta,low,7.0,okta,2.0,,,,,,,
Mongolia,065,Tonhil|Dzüyl,Tonhil,44266.0,46.317,93.9,2241.0,44266,12034,11.7,Cel,-3.0,Cel,,,,,,,4.0,KT,8.0,KT,240.0,deg,1017.1,hPa,780.0,hPa,,,8.0,,,,,3.0,,,,,,,,,,,,50000.0,m,7,okta,low,3.0,okta,2.0,,,,,,,
Mongolia,71,Ulgi|Olgii,Ulgi,44214.0,48.98,89.93833333333333,1720.0,44214,12034,11.6,Cel,1.8,Cel,,,,,,,4.0,KT,2.0,KT,110.0,deg,1016.6,hPa,827.9,hPa,,,8.0,,,,,3.0,,,,,,,,,,,,20000.0,m,7,okta,low,4.0,okta,2.0,,,,,,,
Mongolia,46,Baruunturuun,Baruunturuun,44213.0,49.65861111111112,94.40416666666668,1234.2,44213,12034,11.2,Cel,0.9,Cel,,,,,,,4.0,KT,5.0,KT,290.0,deg,1019.6,hPa,879.5,hPa,,,4.0,,,,,3.0,,,,,,,,,,,,50000.0,m,7,okta,low,7.0,okta,2.0,,,,,,,
Mongolia,46,Ulan-Gom|Harhiraa,Ulan-Gom,44212.0,49.97138888888889,92.07777777777778,939.1,44212,12034,11.3,Cel,4.1,Cel,,,,,,,4.0,KT,5.0,KT,340.0,deg,1021.5,hPa,912.5,hPa,,,2.0,,,,,3.0,,,,,,,,,,,,50000.0,m,7,okta,low,7.0,okta,2.0,,,,,,,
Mongolia,46,Umnu-Gobi|Namir,Umnu-Gobi,44215.0,49.10472222222222,91.72611111111112,1589.3,44215,12034,11.2,Cel,0.9,Cel,,,,,,,4.0,KT,2.0,KT,220.0,deg,1018.6,hPa,841.7,hPa,,,2.0,,,,,3.0,,,,,,,,,,,,20000.0,m,7,okta,low,2.0,okta,2.0,,,,,,,
Myanmar,AY,Pathein|Myetto|Payāgyikôn,Bassein,48094.0,16.766666666666666,94.76666666666668,15.0,48094,12034,27.5,Cel,27.0,Cel,,,,,,,4.0,KT,0.0,KT,,,1007.3,hPa,1006.3,hPa,,,,,,,,2.0,,,,,,,,,,,,7000.0,m,8,okta,low,5.0,okta,2.0,,,,,,,
Myanmar,SG,Homalin,Homalin,48010.0,24.866666666666667,94.91666666666669,130.0,48010,12034,29.0,Cel,25.9,Cel,,,,,,,4.0,KT,1.0,KT,180.0,deg,1004.9,hPa,990.0,hPa,,,,,,,,2.0,,,,,,,,,,,,6000.0,m,6,okta,low,3.0,okta,2.0,,,,,,,
Myanmar,SG,Mawlaik,Mawlaik,48020.0,23.633333333333333,94.41666666666669,115.0,48020,12034,26.8,Cel,25.6,Cel,,,,,,,4.0,KT,0.0,KT,,,,,,,,,,,,,,2.0,,,,,,,,,,,,7000.0,m,6,okta,low,5.0,okta,1.0,1.0,3.0,h,9.0,,,
Myanmar,SG,Kalewa,Kalewa,48025.0,23.2,94.3,117.0,48025,12034,25.8,Cel,25.8,Cel,,,,,,,4.0,KT,0.0,KT,,,1007.3,hPa,993.4,hPa,3.5,hPa,,,,,,2.0,,,,,,,,,,,,1000.0,m,8,okta,low,5.0,okta,1.0,60.0,3.0,h,6.0,,,
Myanmar,CH,Falam,Falam,48031.0,22.916666666666668,93.68333333333334,1372.0,48031,12034,18.5,Cel,18.5,Cel,,,,,,,4.0,KT,1.0,KT,40.0,deg,,,,,,,,,,,,2.0,,,,,,,,,,,,200.0,m,0,okta,,9.0,okta,1.0,47.0,3.0,h,6.0,,,
Myanmar,MD,Nyaung-U|Nyaung U|Nyaungu,Pagan,48048.0,21.2,94.91666666666669,61.0,48048,12034,26.0,Cel,26.0,Cel,,,,,,,4.0,KT,3.0,KT,180.0,deg,1003.6,hPa,998.0,hPa,,,,,,,,2.0,,,,,,,,,,,,5000.0,m,8,okta,low,6.0,okta,1.0,51.0,3.0,h,6.0,,,
Myanmar,MG,Chauk (dead),Chauk (dead),48052.0,20.879722222222224,94.81972222222224,81.0,48052,12034,24.9,Cel,21.9,Cel,,,,,,,4.0,KT,2.0,KT,140.0,deg,,,,,,,,,,,,2.0,,,,,,,,,,,,5000.0,m,8,okta,low,4.0,okta,2.0,,,,,,,
Myanmar,MG,Minbu,Minbu,48064.0,20.166666666666668,94.88333333333334,48.0,48064,12034,26.2,Cel,24.6,Cel,,,,,,,4.0,KT,2.0,KT,40.0,deg,1001.9,hPa,996.2,hPa,,,,,,,,2.0,,,,,,,,,,,,5000.0,m,8,okta,low,5.0,okta,2.0,,,,,,,
Myanmar,RK,Kyaukpyu|Pyinpyumaw,Ramree Island,48071.0,19.416666666666668,93.55,18.0,48071,12034,25.0,Cel,25.0,Cel,,,,,,,4.0,KT,13.0,KT,230.0,deg,1005.0,hPa,1004.1,hPa,,,,,,,,2.0,,,,,,,,,,,,4000.0,m,8,okta,low,6.0,okta,1.0,97.0,3.0,h,9.0,,,
Myanmar,-,Coco Island,Coco Island AP,48109.0,14.116666666666667,93.36666666666666,2.0,48109,12034,30.2,Cel,26.6,Cel,,,,,,,4.0,KT,3.0,KT,230.0,deg,1009.5,hPa,1009.1,hPa,,,,,,,,3.0,,,,,,,,,,,,4000.0,m,7,okta,low,5.0,okta,2.0,,,,,,,
Myanmar,RK,Sittwe|Myoma,Akyab,48062.0,20.133333333333333,92.88333333333334,5.0,48062,12034,25.8,Cel,24.6,Cel,,,,,,,4.0,KT,12.0,KT,270.0,deg,1002.4,hPa,1001.8,hPa,,,,,,,,2.0,,,,,,,,,,,,6000.0,m,8,okta,low,6.0,okta,1.0,65.0,3.0,h,6.0,,,
Oman,SS,Ibra|Muşayb,Ibra,41265.0,22.809444444444445,58.46055555555556,516.0,,12034,,,,,,,,,,,,,,,,,,,,,,,,,,,,,,,,,,,,,,,,,,0,,,,,,,,,,,,
Oman,DA,Bahla|Bahlā’,Bahla,41263.0,22.912222222222223,57.25722222222223,513.0,,12034,,,,,,,,,,,,,,,,,,,,,,,,,,,,,,,,,,,,,,,,,,0,,,,,,,,,,,,
Oman,DA,Nizwa |Jill ar Raddah,Nizwa ,41255.0,22.859166666666667,57.54638888888889,462.0,,12034,,,,,,,,,,,,,,,,,,,,,,,,,,,,,,,,,,,,,,,,,,0,,,,,,,,,,,,
Oman,SH,Qalhat|Al Ghalīlah,Qalhat,41267.0,22.665277777777774,59.401944444444446,11.0,,12034,,,,,,,,,,,,,,,,,,,,,,,,,,,,,,,,,,,,,,,,,,0,,,,,,,,,,,,
Oman,SJ,Sur|Bilād aş Şūr,Sur,41268.0,22.515555555555554,59.43361111111111,41.0,,12034,,,,,,,,,,,,,,,,,,,,,,,,,,,,,,,,,,,,,,,,,,0,,,,,,,,,,,,
Oman,WU,Qarn Alam|Al Ghābah,Qarn Alam,41275.0,21.375555555555557,57.05361111111111,133.0,,12034,,,,,,,,,,,,,,,,,,,,,,,,,,,,,,,,,,,,,,,,,,0,,,,,,,,,,,,
Oman,SH,Masirah|Camp,Masirah AFB,41288.0,20.671388888888888,58.888888888888886,19.0,41288,12034,25.9,Cel,23.4,Cel,,,,,,,4.0,KT,7.0,KT,210.0,deg,1005.3,hPa,1003.2,hPa,1.3,hPa,,,,,,3.0,,,,,,,,,,,,8000.0,m,7,okta,low,7.0,okta,1.0,5.0,3.0,h,1.0,,,
Oman,ZU,Qairoon Hairiti|Qairoon Hairitti,Qairoon Hairiti,41315.0,17.252777777777776,54.08916666666666,881.0,,12034,,,,,,,,,,,,,,,,,,,,,,,,,,,,,,,,,,,,,,,,,,0,,,,,,,,,,,,
Oman,MA,Muscat|Murtafaat al Matar,Seeb Intl,41256.0,23.60861111111111,58.26138888888889,2.0,,12034,,,,,,,,,,,,,,,,,,,,,,,,,,,,,,,,,,,,,,,,,,0,,,,,,,,,,,,
Oman,-,Sohar|Ḩārat ash Shaykh,Majis,41246.0,24.4675,56.644444444444446,2.0,,12034,,,,,,,,,,,,,,,,,,,,,,,,,,,,,,,,,,,,,,,,,,0,,,,,,,,,,,,
Oman,ZU,Salalah,Salalah,41316.0,17.03472222222222,54.07361111111111,20.0,,12034,,,,,,,,,,,,,,,,,,,,,,,,,,,,,,,,,,,,,,,,,,0,,,,,,,,,,,,
Oman,MU,Khassab|Khasab|Ḩall Samāsim,Khassab AFB,41240.0,26.210555555555555,56.24388888888889,4.0,,12034,,,,,,,,,,,,,,,,,,,,,,,,,,,,,,,,,,,,,,,,,,0,,,,,,,,,,,,
Oman,MA,Qaboos|Muţayraḩ,Qaboos / Port,41258.0,23.6275,58.5725,2.0,,12034,,,,,,,,,,,,,,,,,,,,,,,,,,,,,,,,,,,,,,,,,,0,,,,,,,,,,,,
Pakistan,P,Khanpur|Basti Galkālawāli,Khanpur,41718.0,28.65,70.68333333333334,87.0,41718,12034,31.0,Cel,25.4,Cel,28.9,Cel,,,,,4.0,KT,0.0,KT,,,999.5,hPa,989.7,hPa,-0.2,hPa,,,,,,2.0,0.0,,,,,,0.0,mm,,,,2000.0,m,0,okta,,,,1.0,4.0,3.0,h,0.0,,,
Pakistan,S,Jacobabad|Goth Fazli,Jacobabad AFB,41715.0,28.3,68.46666666666667,55.0,41715,12034,30.5,Cel,27.8,Cel,28.0,Cel,,,,,4.0,KT,0.0,KT,,,1000.7,hPa,994.4,hPa,-1.0,hPa,,,,,,2.0,0.0,,,,,,0.0,mm,,,,4000.0,m,0,okta,,,,1.0,5.0,3.0,h,0.0,,,
Pakistan,S,Badin|Badīn,Badin,41785.0,24.633333333333333,68.9,10.0,41785,12034,28.5,Cel,25.0,Cel,26.0,Cel,,,,,4.0,KT,4.0,KT,230.0,deg,1003.7,hPa,1002.4,hPa,1.1,hPa,,,,,,2.0,0.0,,,,,,0.0,mm,,,,10000.0,m,3,okta,low,3.0,okta,2.0,,,,,,,
Pakistan,N,Drosh|Langa,Drosh,41515.0,35.56666666666667,71.78333333333333,1464.0,41515,12034,21.6,Cel,11.2,Cel,19.4,Cel,,,,,4.0,KT,0.0,KT,,,1005.6,hPa,848.7,hPa,-0.6,hPa,,850.0,hPa,1450.0,gpm,2.0,0.0,,,,,,0.0,mm,,,,10000.0,m,0,okta,,,,2.0,,,,,,,
Pakistan,B,Dal Bandin|Dālbandīn,Dal Bandin,41712.0,28.883333333333333,64.4,848.0,41712,12034,23.0,Cel,0.0,Cel,22.0,Cel,,,,,4.0,KT,0.0,KT,,,1006.4,hPa,912.8,hPa,-0.1,hPa,,850.0,hPa,1464.0,gpm,2.0,0.0,,,,,,0.0,mm,,,,10000.0,m,0,okta,,,,2.0,,,,,,,
Pakistan,B,Nokkundi|Gharībābād,Nokkundi,41710.0,28.816666666666663,62.75,682.0,41710,12034,22.5,Cel,-3.1,Cel,20.0,Cel,,,,,4.0,KT,0.0,KT,,,1002.8,hPa,927.8,hPa,-0.7,hPa,,,,,,2.0,0.0,,,,,,0.0,mm,,,,4000.0,m,0,okta,,,,1.0,6.0,3.0,h,0.0,,,
Pakistan,P,Bahawalpur|Chak Seven,Bahawalpur,41700.0,29.4,71.78333333333333,112.0,41700,12034,31.0,Cel,26.1,Cel,28.3,Cel,,,,,4.0,KT,2.0,KT,230.0,deg,998.6,hPa,986.8,hPa,-1.4,hPa,,,,,,2.0,0.0,,,,,,0.0,mm,,,,4000.0,m,0,okta,,,,1.0,4.0,3.0,h,0.0,,,
Pakistan,B,Sibi|Hāji Dur Muhammad,Sibi,41697.0,29.55,67.88333333333334,133.0,41697,12034,30.0,Cel,23.5,Cel,28.5,Cel,,,,,4.0,KT,0.0,KT,,,1000.6,hPa,985.8,hPa,-0.9,hPa,,,,,,2.0,0.0,,,,,,0.0,mm,,,,10000.0,m,0,okta,,,,2.0,,,,,,,
Pakistan,N,Kalam|Derki,Kalam,41510.0,35.833333333333336,72.98333333333333,5183.0,41510,12034,14.5,Cel,9.2,Cel,10.8,Cel,,,,,4.0,KT,2.0,KT,90.0,deg,1010.5,hPa,787.5,hPa,-2.1,hPa,,850.0,hPa,1456.0,gpm,2.0,0.0,,,,,,,mm,,,,10000.0,m,0,okta,,,,2.0,,,,,,,
Pakistan,S,Chhor|Chor,Chhor,41768.0,25.516666666666666,69.78333333333333,5.0,41768,12034,28.0,Cel,25.2,Cel,26.0,Cel,,,,,4.0,KT,4.0,KT,230.0,deg,1002.7,hPa,1002.0,hPa,0.5,hPa,,,,,,2.0,0.0,,,,,,0.0,mm,,,,4000.0,m,0,okta,,,,2.0,,,,,,,
Pakistan,S,Karachi|Gulshan-i-Jamal,Karachi / Intl AP,41780.0,24.9,67.13333333333334,21.0,41780,12034,28.5,Cel,25.7,Cel,27.5,Cel,,,,,4.0,KT,6.0,KT,270.0,deg,1003.7,hPa,1001.0,hPa,0.4,hPa,,,,,,2.0,0.0,,,,,,0.0,mm,,,,4000.0,m,7,okta,low,7.0,okta,1.0,4.0,3.0,h,0.0,,,
Pakistan,B,Panjgur|Panjgūr,Panjgur,41739.0,26.966666666666665,64.1,980.0,41739,12034,25.5,Cel,-0.3,Cel,23.0,Cel,,,,,4.0,KT,4.0,KT,270.0,deg,1006.1,hPa,899.7,hPa,-0.1,hPa,,850.0,hPa,1474.0,gpm,2.0,0.0,,,,,,0.0,mm,,,,4000.0,m,0,okta,,,,1.0,5.0,3.0,h,0.0,,,
Pakistan,B,Khuzdar|Muzzafarābad,Khuzdar,41744.0,27.83333333333333,66.63333333333334,1231.0,41744,12034,25.5,Cel,7.6,Cel,22.0,Cel,,,,,4.0,KT,0.0,KT,,,1001.7,hPa,870.1,hPa,-0.1,hPa,,850.0,hPa,1435.0,gpm,2.0,0.0,,,,,,0.0,mm,,,,4000.0,m,0,okta,,,,1.0,6.0,3.0,h,0.0,,,
Pakistan,S,Nawabshah|Goth Qāzi Amin Ali,Nawabshah,41749.0,26.25,68.36666666666666,37.0,41749,12034,29.0,Cel,25.5,Cel,27.0,Cel,,,,,4.0,KT,4.0,KT,130.0,deg,1002.0,hPa,998.7,hPa,1.0,hPa,,,,,,2.0,0.0,,,,,,0.0,mm,,,,4000.0,m,0,okta,,,,2.0,,,,,,,
Pakistan,B,Jiwani|Laura,Jiwani,41756.0,25.066666666666663,61.8,56.0,41756,12034,27.0,Cel,25.6,Cel,21.0,Cel,,,,,4.0,KT,0.0,KT,,,1005.3,hPa,998.9,hPa,2.8,hPa,,,,,,2.0,0.0,,,,,,0.0,mm,,,,2000.0,m,4,okta,low,4.0,okta,1.0,10.0,3.0,h,0.0,,,
Pakistan,B,Pasni,Pasni,41759.0,25.266666666666666,63.48333333333333,4.0,41759,12034,26.5,Cel,26.3,Cel,24.0,Cel,,,,,4.0,KT,0.0,KT,,,1002.8,hPa,1002.2,hPa,1.3,hPa,,,,,,0.0,0.0,,,,,,0.0,mm,,,,2000.0,m,0,okta,,,,1.0,47.0,3.0,h,4.0,,,
Pakistan,N,Mir Khani|Urtsun,Mir Khani,41509.0,35.5,71.7,1912.0,41509,12034,21.0,Cel,14.5,Cel,19.5,Cel,,,,,4.0,KT,0.0,KT,,,1003.5,hPa,867.9,hPa,-1.4,hPa,,850.0,hPa,1429.0,gpm,2.0,0.0,,,,,,0.0,mm,,,,10000.0,m,0,okta,,,,2.0,,,,,,,
Pakistan,,Bunji|Darot,Bunji,41518.0,35.666666666666664,74.63333333333334,1469.0,41518,12034,21.1,Cel,8.3,Cel,1.7,Cel,,,,,4.0,KT,2.0,KT,180.0,deg,,,,,,,,850.0,hPa,,,2.0,0.0,,,,,,0.0,mm,,,,10000.0,m,3,okta,low,2.0,okta,2.0,,,,,,,
Pakistan,,Hunza|Baltit,Hunza,41505.0,36.31666666666667,74.65,2374.0,41505,12034,13.5,Cel,5.9,Cel,12.5,Cel,,,,,4.0,KT,0.0,KT,,,,,,,,,,850.0,hPa,,,2.0,0.0,,,,,,1.0,mm,,,,10000.0,m,0,okta,,,,2.0,,,,,,,
Pakistan,,Gilgit|Sonikot,Gilgit,41516.0,35.916666666666664,74.33333333333333,1453.0,41516,12034,19.5,Cel,12.8,Cel,14.5,Cel,,,,,4.0,KT,0.0,KT,,,1006.9,hPa,849.2,hPa,0.2,hPa,,850.0,hPa,1451.0,gpm,2.0,0.0,,,,,,0.0,mm,,,,4000.0,m,0,okta,,,,2.0,,,,,,,
Pakistan,S,Badin|Badīn,Badin,41785.0,24.633333333333333,68.9,10.0,41785,12034,28.5,Cel,25.0,Cel,26.0,Cel,,,,,4.0,KT,4.0,KT,230.0,deg,1003.7,hPa,1002.4,hPa,1.1,hPa,,,,,,2.0,0.0,,,,,,0.0,mm,,,,10000.0,m,3,okta,low,3.0,okta,2.0,,,,,,,
Pakistan,S,Hyderabad|Agan Wadero,Hyderabad AP,41764.0,25.383333333333333,68.41666666666667,28.0,41764,12034,28.0,Cel,24.4,Cel,26.5,Cel,,,,,4.0,KT,10.0,KT,230.0,deg,1002.3,hPa,997.4,hPa,0.2,hPa,,,,,,2.0,0.0,,,,,,0.0,mm,,,,4000.0,m,0,okta,,,,2.0,,,,,,,
Pakistan,S,Rohri|Lehti Faqīr,Rohri,41725.0,27.666666666666668,68.9,67.0,41725,12034,31.0,Cel,26.9,Cel,28.0,Cel,,,,,4.0,KT,2.0,KT,230.0,deg,1000.3,hPa,992.8,hPa,-0.9,hPa,,,,,,2.0,0.0,,,,,,0.0,mm,,,,4000.0,m,0,okta,,,,2.0,,,,,,,
Pakistan,N,Dir|Bekārai,Dir,41508.0,35.2,71.85,1369.0,41508,12034,18.3,Cel,14.4,Cel,14.5,Cel,,,,,4.0,KT,0.0,KT,,,1010.6,hPa,860.1,hPa,-1.5,hPa,,850.0,hPa,1476.0,gpm,2.0,0.0,,,,,,,mm,,,,10000.0,m,0,okta,,,,2.0,,,,,,,
Pakistan,N,Balakor|Bhurj,Balakor,41536.0,34.38333333333333,73.35,980.0,41536,12034,18.5,Cel,15.3,Cel,17.5,Cel,,,,,4.0,KT,0.0,KT,,,1005.6,hPa,895.1,hPa,-2.0,hPa,,850.0,hPa,1435.0,gpm,2.0,0.0,,,,,,0.0,mm,,,,10000.0,m,0,okta,,,,2.0,,,,,,,
Pakistan,N,Timergara|Derai,Timergara MET OBS (Dir Lower),41507.0,34.833333333333336,71.81666666666666,786.0,41507,12034,25.0,Cel,19.8,Cel,20.0,Cel,,,,,4.0,KT,2.0,KT,310.0,deg,965.1,hPa,915.7,hPa,-1.4,hPa,,,,,,2.0,0.0,,,,,,,mm,,,,10000.0,m,0,okta,,,,2.0,,,,,,,
Pakistan,T,Parachinar|Pārachinār,Parachinar,41560.0,33.86666666666667,70.08333333333333,1725.0,41560,12034,21.0,Cel,16.5,Cel,18.0,Cel,,,,,4.0,KT,0.0,KT,,,1007.2,hPa,824.5,hPa,-0.1,hPa,,850.0,hPa,1461.0,gpm,2.0,0.0,,,,,,0.0,mm,,,,10000.0,m,0,okta,,,,2.0,,,,,,,
Pakistan,N,Kakul|Kukul Cantonment,Kakul,41535.0,34.18333333333333,73.25,1308.0,41535,12034,18.5,Cel,14.4,Cel,14.5,Cel,,,,,4.0,KT,0.0,KT,,,1002.6,hPa,863.2,hPa,-2.3,hPa,,850.0,hPa,1409.0,gpm,2.0,0.0,,,,,,0.0,mm,,,,10000.0,m,0,okta,,,,2.0,,,,,,,
Pakistan,N,Chitral|Kūkīl,Chitral,41506.0,35.85,71.83333333333333,1499.0,41506,12034,16.0,Cel,12.7,Cel,15.3,Cel,,,,,4.0,KT,0.0,KT,,,1009.7,hPa,845.8,hPa,-1.1,hPa,,850.0,hPa,1457.0,gpm,2.0,0.0,,,,,,0.0,mm,,,,10000.0,m,0,okta,,,,2.0,,,,,,,
Pakistan,N,Dir|Bekārai,Dir,41508.0,35.2,71.85,1369.0,41508,12034,18.3,Cel,14.4,Cel,14.5,Cel,,,,,4.0,KT,0.0,KT,,,1010.6,hPa,860.1,hPa,-1.5,hPa,,850.0,hPa,1476.0,gpm,2.0,0.0,,,,,,0.0,mm,,,,10000.0,m,0,okta,,,,2.0,,,,,,,
Pakistan,N,Drosh|Langa,Drosh,41515.0,35.56666666666667,71.78333333333333,1464.0,41515,12034,21.6,Cel,11.2,Cel,19.4,Cel,,,,,4.0,KT,0.0,KT,,,1005.6,hPa,848.7,hPa,-0.6,hPa,,850.0,hPa,1450.0,gpm,2.0,0.0,,,,,,0.0,mm,,,,10000.0,m,0,okta,,,,2.0,,,,,,,
Pakistan,N,Malam Jabba|Jamāma,Malam Jabba,41525.0,34.75,72.9,947.0,41525,12034,14.0,Cel,10.6,Cel,12.0,Cel,,,,,4.0,KT,0.0,KT,,,997.9,hPa,765.5,hPa,0.6,hPa,,850.0,hPa,1348.0,gpm,2.0,0.0,,,,,,0.0,mm,,,,10000.0,m,0,okta,,,,2.0,,,,,,,
Pakistan,,Gupis|Shaimus,Gupis,41504.0,36.16666666666666,73.4,4689.0,41504,12034,16.0,Cel,6.9,Cel,12.0,Cel,,,,,4.0,KT,0.0,KT,,,1008.2,hPa,782.0,hPa,1.0,hPa,,850.0,hPa,1444.0,gpm,2.0,0.0,,,,,,0.0,mm,,,,10000.0,m,0,okta,,,,2.0,,,,,,,
Pakistan,N,Saidu Sharif|Barkly,Saidu Sharif,41523.0,34.733333333333334,72.35,950.0,41523,12034,21.0,Cel,17.9,Cel,20.0,Cel,,,,,4.0,KT,0.0,KT,,,1005.6,hPa,901.0,hPa,-1.5,hPa,,850.0,hPa,1447.0,gpm,2.0,0.0,,,,,,0.0,mm,,,,10000.0,m,0,okta,,,,2.0,,,,,,,
Pakistan,N,Kakul|Kukul Cantonment,Kakul,41535.0,34.18333333333333,73.25,1308.0,41535,12034,18.5,Cel,14.4,Cel,14.5,Cel,,,,,4.0,KT,0.0,KT,,,1002.6,hPa,863.2,hPa,-2.3,hPa,,850.0,hPa,1409.0,gpm,2.0,0.0,,,,,,0.0,mm,,,,10000.0,m,0,okta,,,,2.0,,,,,,,
Pakistan,N,Balakor|Bhurj,Balakor,41536.0,34.38333333333333,73.35,980.0,41536,12034,18.5,Cel,15.3,Cel,17.5,Cel,,,,,4.0,KT,0.0,KT,,,1005.6,hPa,895.1,hPa,-2.0,hPa,,850.0,hPa,1435.0,gpm,2.0,0.0,,,,,,0.0,mm,,,,10000.0,m,0,okta,,,,2.0,,,,,,,
Pakistan,T,Parachinar|Pārachinār,Parachinar,41560.0,33.86666666666667,70.08333333333333,1725.0,41560,12034,21.0,Cel,16.5,Cel,18.0,Cel,,,,,4.0,KT,0.0,KT,,,1007.2,hPa,824.5,hPa,-0.1,hPa,,850.0,hPa,1461.0,gpm,2.0,0.0,,,,,,0.0,mm,,,,10000.0,m,0,okta,,,,2.0,,,,,,,
Pakistan,P,Islamabad|Dhok Gangāl,Benazir Bhutto International AP,41571.0,33.61666666666667,73.1,507.0,41571,12034,27.0,Cel,18.8,Cel,23.7,Cel,,,,,4.0,KT,4.0,KT,130.0,deg,999.8,hPa,944.3,hPa,-2.9,hPa,,,,,,2.0,0.0,,,,,,0.0,mm,,,,10000.0,m,1,okta,middle,1.0,okta,2.0,,,,,,,
Pakistan,P,Jhelum,Jhelum,41598.0,32.93333333333333,73.71666666666667,232.0,41598,12034,27.0,Cel,23.4,Cel,25.5,Cel,,,,,4.0,KT,0.0,KT,,,999.4,hPa,973.4,hPa,-3.5,hPa,,,,,,2.0,0.0,,,,,,0.0,mm,,,,4000.0,m,0,okta,,,,1.0,4.0,3.0,h,0.0,,,
Pakistan,P,Sialkot|Miānāpura Khurd,Sialkot,41600.0,32.5,74.53333333333333,255.0,41600,12034,28.5,Cel,25.0,Cel,25.8,Cel,,,,,4.0,KT,2.0,KT,310.0,deg,998.3,hPa,970.1,hPa,-4.1,hPa,,,,,,2.0,0.0,,,,,,0.0,mm,,,,4000.0,m,0,okta,,,,1.0,4.0,3.0,h,0.0,,,
Pakistan,S,Karachi|Gulshan-i-Jamal,Karachi / Intl AP,41780.0,24.9,67.13333333333334,21.0,41780,12034,28.5,Cel,25.7,Cel,27.5,Cel,,,,,4.0,KT,6.0,KT,270.0,deg,1003.7,hPa,1001.0,hPa,0.4,hPa,,,,,,2.0,0.0,,,,,,0.0,mm,,,,4000.0,m,7,okta,low,7.0,okta,1.0,4.0,3.0,h,0.0,,,
Pakistan,B,Zhob,Zhob,41620.0,31.35,69.46666666666667,1405.0,41620,12034,23.0,Cel,15.9,Cel,22.0,Cel,,,,,4.0,KT,2.0,KT,270.0,deg,1000.7,hPa,851.0,hPa,-1.3,hPa,,850.0,hPa,1415.0,gpm,3.0,,,,,,,0.0,,,,,4000.0,m,0,okta,,,,2.0,,,,,,,
Pakistan,N,Dera Ismail Khan|D. I. Khan|Nāīwāla Basti,Dera Ismail Khan,41624.0,31.816666666666663,70.91666666666667,172.0,41624,12034,29.5,Cel,25.3,Cel,27.0,Cel,,,,,4.0,KT,0.0,KT,,,1000.0,hPa,980.6,hPa,-2.6,hPa,,,,,,2.0,0.0,,,,,,0.0,mm,,,,10000.0,m,0,okta,,,,2.0,,,,,,,
Pakistan,P,Faisal Abad|Tāriqābād,Faisal Abad,41630.0,31.433333333333334,73.1,183.0,41630,12034,28.5,Cel,25.0,Cel,26.5,Cel,,,,,4.0,KT,0.0,KT,,,999.9,hPa,,,-3.5,hPa,,,,,,2.0,0.0,,,,,,0.0,mm,,,,4000.0,m,0,okta,,,,1.0,4.0,3.0,h,0.0,,,
Pakistan,P,Lahore,Walton,41640.0,31.55,74.33333333333333,214.0,41640,12034,30.0,Cel,25.1,Cel,26.7,Cel,,,,,4.0,KT,2.0,KT,230.0,deg,999.2,hPa,975.5,hPa,-3.6,hPa,,,,,,2.0,0.0,,,,,,0.0,mm,,,,4000.0,m,0,okta,,,,1.0,4.0,3.0,h,0.0,,,
Pakistan,B,Quetta|Nau Hisār,Quetta AP,41660.0,30.25,66.88333333333334,1587.0,41660,12034,21.5,Cel,-2.9,Cel,15.5,Cel,,,,,4.0,KT,0.0,KT,,,1009.9,hPa,839.9,hPa,0.0,hPa,,850.0,hPa,1486.0,gpm,2.0,0.0,,,,,,0.0,mm,,,,4000.0,m,0,okta,,,,1.0,6.0,3.0,h,0.0,,,
Pakistan,P,Bahawalnagar|Hafizwāla,Bahawalnagar,41678.0,29.95,73.25,162.0,41678,12034,31.0,Cel,23.1,Cel,28.5,Cel,,,,,4.0,KT,0.0,KT,,,1000.1,hPa,,,-1.6,hPa,,,,,,2.0,0.0,,,,,,0.0,mm,,,,4000.0,m,0,okta,,,,1.0,5.0,3.0,h,0.0,,,
Pakistan,,Hunza|Baltit,Hunza,41505.0,36.31666666666667,74.65,2374.0,41505,12034,13.5,Cel,5.9,Cel,12.5,Cel,,,,,4.0,KT,0.0,KT,,,,,,,,,,850.0,hPa,,,2.0,0.0,,,,,,0.0,mm,,,,10000.0,m,0,okta,,,,2.0,,,,,,,
Pakistan,N,Chitral|Kūkīl,Chitral,41506.0,35.85,71.83333333333333,1499.0,41506,12034,16.0,Cel,12.7,Cel,15.3,Cel,,,,,4.0,KT,0.0,KT,,,1009.7,hPa,845.8,hPa,-1.1,hPa,,850.0,hPa,1457.0,gpm,2.0,0.0,,,,,,0.0,mm,,,,10000.0,m,0,okta,,,,2.0,,,,,,,
Pakistan,B,Kalat|Ziārat Shāh-i-Mardān,Kalat,41696.0,29.03333333333333,66.58333333333333,2015.0,41696,12034,18.0,Cel,4.9,Cel,15.0,Cel,,,,,4.0,KT,0.0,KT,,,1012.8,hPa,799.0,hPa,0.7,hPa,,850.0,hPa,1493.0,gpm,2.0,0.0,,,,,,0.0,mm,,,,10000.0,m,0,okta,,,,2.0,,,,,,,
Pakistan,S,Chhor|Chor,Chhor,41768.0,25.516666666666666,69.78333333333333,5.0,41768,12034,28.0,Cel,25.2,Cel,26.0,Cel,,,,,4.0,KT,4.0,KT,230.0,deg,1002.7,hPa,1002.0,hPa,0.5,hPa,,,,,,2.0,0.0,,,,,,0.0,mm,,,,4000.0,m,0,okta,,,,2.0,,,,,,,
Pakistan,S,Sakrand|Seth Mahmūd,Sakrand Agromet OBS,41745.0,25.133333333333333,68.26666666666667,11.0,41745,12034,29.0,Cel,24.8,Cel,25.5,Cel,,,,,4.0,KT,4.0,KT,180.0,deg,,,,,,,,,,,,2.0,0.0,,,,,,0.0,mm,,,,4000.0,m,0,okta,,,,1.0,5.0,3.0,h,0.0,,,
Pakistan,S,Hyderabad|Agan Wadero,Hyderabad AP,41764.0,25.383333333333333,68.41666666666667,28.0,41764,12034,28.0,Cel,24.4,Cel,26.5,Cel,,,,,4.0,KT,10.0,KT,230.0,deg,1002.3,hPa,997.4,hPa,0.2,hPa,,,,,,2.0,0.0,,,,,,0.0,mm,,,,4000.0,m,0,okta,,,,2.0,,,,,,,
Pakistan,P,Dera Ghazi Khan|Farīd Town,Dera Ghazi Khan,41652.0,30.05,70.63333333333334,123.0,41652,12034,30.0,Cel,25.1,Cel,26.5,Cel,,,,,4.0,KT,2.0,KT,230.0,deg,1000.1,hPa,982.9,hPa,-2.5,hPa,,,,,,2.0,0.0,,,,,,,mm,,,,2000.0,m,0,okta,,,,1.0,4.0,3.0,h,0.0,,,
Pakistan,,Chillas|Chilās,Chillas,41519.0,35.416666666666664,74.1,1249.0,41519,12034,27.0,Cel,9.9,Cel,25.5,Cel,,,,,4.0,KT,0.0,KT,,,1003.2,hPa,870.3,hPa,0.1,hPa,,850.0,hPa,1456.0,gpm,2.0,0.0,,,,,,0.0,mm,,,,10000.0,m,0,okta,,,,2.0,,,,,,,
Pakistan,,Astore|Dache,Astore,41520.0,35.36666666666667,74.9,2249.0,41520,12034,13.0,Cel,5.3,Cel,11.7,Cel,,,,,4.0,KT,2.0,KT,180.0,deg,983.1,hPa,760.8,hPa,0.1,hPa,,850.0,hPa,1218.0,gpm,2.0,0.0,,,,,,0.0,mm,,,,10000.0,m,0,okta,,,,2.0,,,,,,,
Pakistan,N,Pattan|Pālas,Pattan,41524.0,35.1,73.0,752.0,41524,12034,23.0,Cel,18.5,Cel,20.8,Cel,,,,,4.0,KT,0.0,KT,,,1006.6,hPa,923.6,hPa,-2.7,hPa,,,,,,2.0,0.0,,,,,,,mm,,,,10000.0,m,0,okta,,,,2.0,,,,,,,
Pakistan,T,Landikotal|Gāgra,Landikotal,41528.0,34.1,71.133,1067.0,41528,12034,21.5,Cel,16.8,Cel,18.6,Cel,,,,,4.0,KT,0.0,KT,,,1004.7,hPa,912.8,hPa,-0.3,hPa,,850.0,hPa,1442.0,gpm,2.0,0.0,,,,,,,mm,,,,10000.0,m,0,okta,,,,2.0,,,,,,,
Pakistan,NW,Peshawar|Khushhāl Kot,Peshawar,41529.0,34.03333333333333,71.93333333333334,329.0,41529,12034,26.0,Cel,22.3,Cel,24.0,Cel,,,,,4.0,KT,0.0,KT,,,1002.1,hPa,965.5,hPa,-2.8,hPa,,,,,,2.0,0.0,,,,,,0.0,mm,,,,4000.0,m,0,okta,,,,2.0,,,,,,,
Pakistan,P,Okara|Okāra,Okara,41646.0,30.8,73.43333333333334,180.0,41646,12034,29.0,Cel,24.8,Cel,25.5,Cel,,,,,4.0,KT,0.0,KT,,,1001.3,hPa,980.9,hPa,-2.5,hPa,,,,,,2.0,0.0,,,,,,,mm,,,,4000.0,m,0,okta,,,,1.0,4.0,3.0,h,0.0,,,
Pakistan,P,Lahore|Iqbāl Camp,Lahore AFB,41641.0,31.516666666666666,74.4,216.0,41641,12034,30.0,Cel,25.1,Cel,26.7,Cel,,,,,4.0,KT,6.0,KT,270.0,deg,999.1,hPa,973.1,hPa,-4.3,hPa,,,,,,2.0,0.0,,,,,,,mm,,,,4000.0,m,0,okta,,,,1.0,4.0,3.0,h,0.0,,,
Pakistan,P,Lahore,Walton,41640.0,31.55,74.33333333333333,214.0,41640,12034,30.0,Cel,25.1,Cel,26.7,Cel,,,,,4.0,KT,2.0,KT,230.0,deg,999.2,hPa,975.5,hPa,-3.6,hPa,,,,,,2.0,0.0,,,,,,,mm,,,,4000.0,m,0,okta,,,,1.0,4.0,3.0,h,0.0,,,
Pakistan,PB,Gujrat,Gujrat,41639.0,32.53333333333333,74.1,220.0,41639,12034,29.0,Cel,25.5,Cel,26.0,Cel,,,,,4.0,KT,2.0,KT,90.0,deg,,,,,,,,,,,,2.0,0.0,,,,,,0.0,mm,,,,4000.0,m,0,okta,,,,1.0,4.0,3.0,h,0.0,,,
Pakistan,P,Toba Tek Singh|Chak Three Hundred Thirty JB,Toba Tek Singh,41638.0,30.98333333333333,72.46666666666667,156.0,41638,12034,28.0,Cel,24.4,Cel,26.5,Cel,,,,,4.0,KT,0.0,KT,,,,,,,,,,,,,,2.0,0.0,,,,,,0.0,mm,,,,4000.0,m,0,okta,,,,1.0,4.0,3.0,h,0.0,,,
Pakistan,P,Jhang|Chy,Jhang,41636.0,31.266666666666666,72.31666666666666,157.0,41636,12034,27.5,Cel,24.7,Cel,25.0,Cel,,,,,4.0,KT,0.0,KT,,,999.8,hPa,982.2,hPa,-3.4,hPa,,,,,,2.0,0.0,,,,,,0.0,mm,,,,4000.0,m,0,okta,,,,1.0,4.0,3.0,h,0.0,,,
Pakistan,PB,Jauharbad,Jauharbad,41635.0,32.5,72.43333333333334,215.0,41635,12034,29.0,Cel,26.2,Cel,27.5,Cel,,,,,4.0,KT,0.0,KT,,,,,,,,,,,,,,2.0,0.0,,,,,,0.0,mm,,,,4000.0,m,0,okta,,,,1.0,4.0,3.0,h,0.0,,,
Pakistan,PB,Chakwal,Chakwal,41634.0,32.916666666666664,72.85,516.0,41634,12034,27.5,Cel,23.5,Cel,24.5,Cel,,,,,4.0,KT,2.0,KT,270.0,deg,,,,,,,,,,,,2.0,0.0,,,,,,0.0,mm,,,,10000.0,m,0,okta,,,,2.0,,,,,,,
Pakistan,B,Quetta|Nau Hisār,Quetta AP,41660.0,30.25,66.88333333333334,1587.0,41660,12034,21.5,Cel,-2.9,Cel,15.5,Cel,,,,,4.0,KT,0.0,KT,,,1009.9,hPa,839.9,hPa,0.0,hPa,,850.0,hPa,1486.0,gpm,2.0,0.0,,,,,,0.0,mm,,,,4000.0,m,0,okta,,,,1.0,6.0,3.0,h,0.0,,,
Pakistan,PB,Noor Pur Thal,Noor Pur Thal,41633.0,31.866666666666667,71.9,177.0,41633,12034,29.0,Cel,26.2,Cel,27.0,Cel,,,,,4.0,KT,0.0,KT,,,,,,,,,,,,,,2.0,0.0,,,,,,0.0,mm,,,,10000.0,m,0,okta,,,,2.0,,,,,,,
Pakistan,N,Dera Ismail Khan|D. I. Khan|Nāīwāla Basti,Dera Ismail Khan,41624.0,31.816666666666663,70.91666666666667,172.0,41624,12034,29.5,Cel,25.3,Cel,27.0,Cel,,,,,4.0,KT,0.0,KT,,,1000.0,hPa,980.6,hPa,-2.6,hPa,,,,,,2.0,0.0,,,,,,,mm,,,,10000.0,m,0,okta,,,,2.0,,,,,,,
Pakistan,B,Zhob,Zhob,41620.0,31.35,69.46666666666667,1405.0,41620,12034,23.0,Cel,15.9,Cel,22.0,Cel,,,,,4.0,KT,2.0,KT,270.0,deg,1000.7,hPa,851.0,hPa,-1.3,hPa,,850.0,hPa,1415.0,gpm,3.0,,,,,,,0.0,,,,,4000.0,m,0,okta,,,,2.0,,,,,,,
Pakistan,P,Sialkot|Miānāpura Khurd,Sialkot,41600.0,32.5,74.53333333333333,255.0,41600,12034,28.5,Cel,25.0,Cel,25.8,Cel,,,,,4.0,KT,2.0,KT,310.0,deg,998.3,hPa,970.1,hPa,-4.1,hPa,,,,,,2.0,0.0,,,,,,0.0,mm,,,,4000.0,m,0,okta,,,,1.0,4.0,3.0,h,0.0,,,
Pakistan,P,Sialkot|Gidarkot,Sialkot International AP,41599.0,32.53333333333333,74.03333333333333,248.0,41599,12034,28.5,Cel,25.0,Cel,25.5,Cel,,,,,4.0,KT,0.0,KT,,,999.0,hPa,971.5,hPa,-4.0,hPa,,,,,,2.0,0.0,,,,,,0.0,mm,,,,4000.0,m,0,okta,,,,1.0,4.0,3.0,h,0.0,,,
Pakistan,P,Jhelum,Jhelum,41598.0,32.93333333333333,73.71666666666667,232.0,41598,12034,27.0,Cel,23.4,Cel,25.5,Cel,,,,,4.0,KT,0.0,KT,,,999.4,hPa,973.4,hPa,-3.5,hPa,,,,,,2.0,0.0,,,,,,0.0,mm,,,,4000.0,m,0,okta,,,,1.0,4.0,3.0,h,0.0,,,
Pakistan,P,Mandi Bahuddin|Rampur,Mandi Bahuddin,41597.0,32.583333333333336,73.5,222.0,41597,12034,27.5,Cel,25.4,Cel,26.7,Cel,,,,,4.0,KT,0.0,KT,,,1000.5,hPa,972.2,hPa,-3.6,hPa,,,,,,2.0,0.0,,,,,,0.0,mm,,,,4000.0,m,0,okta,,,,1.0,4.0,3.0,h,0.0,,,
Pakistan,SD,Sukkur|Dhapsari,Sukkur,41593.0,27.722,68.791,59.7,41593,12034,29.5,Cel,26.0,Cel,27.5,Cel,,,,,4.0,KT,2.0,KT,230.0,deg,998.6,hPa,978.3,hPa,-3.8,hPa,,,,,,2.0,0.0,,,,,,0.0,mm,,,,4000.0,m,0,okta,,,,1.0,4.0,3.0,h,0.0,,,
Pakistan,P,Islamabad City|Katariān,Islamabad City,41577.0,33.71666666666667,73.1,561.0,41577,12034,26.5,Cel,20.7,Cel,20.0,Cel,,,,,4.0,KT,0.0,KT,,,999.8,hPa,941.0,hPa,-3.1,hPa,,,,,,2.0,0.0,,,,,,,mm,,,,4000.0,m,0,okta,,,,1.0,4.0,3.0,h,0.0,,,
Pakistan,P,Mangla|Chak Jallo,Mangla,41576.0,33.06666666666667,73.63333333333334,262.0,41576,12034,27.0,Cel,23.4,Cel,24.7,Cel,,,,,4.0,KT,2.0,KT,310.0,deg,1001.0,hPa,,,-3.4,hPa,,,,,,2.0,0.0,,,,,,0.0,mm,,,,10000.0,m,0,okta,,,,2.0,,,,,,,
Pakistan,JK,Rawalakot|Barmang Kalān,Rawalakot,41574.0,33.85,73.8,1650.0,41574,12034,15.0,Cel,13.4,Cel,12.0,Cel,,,,,4.0,KT,0.0,KT,,,1014.8,hPa,831.9,hPa,-0.1,hPa,,850.0,hPa,1494.0,gpm,2.0,0.0,,,,,,0.0,mm,,,,10000.0,m,0,okta,,,,2.0,,,,,,,
Pakistan,,Murree,Murree,41573.0,33.54,73.23,2041.8,41573,12034,22.0,Cel,13.3,Cel,15.0,Cel,,,,,4.0,KT,6.0,KT,130.0,deg,1001.8,hPa,792.3,hPa,-2.5,hPa,,850.0,hPa,1419.0,gpm,2.0,0.0,,,,,,0.0,mm,,,,10000.0,m,0,okta,,,,2.0,,,,,,,
Pakistan,P,Islamabad|Dhok Gangāl,Benazir Bhutto International AP,41571.0,33.61666666666667,73.1,507.0,41571,12034,27.0,Cel,18.8,Cel,23.7,Cel,,,,,4.0,KT,4.0,KT,130.0,deg,999.8,hPa,944.3,hPa,-2.9,hPa,,,,,,2.0,0.0,,,,,,0.0,mm,,,,10000.0,m,1,okta,middle,1.0,okta,2.0,,,,,,,
Pakistan,N,Cherat|Cherāt,Cherat,41565.0,33.81666666666667,71.88333333333334,1371.0,41565,12034,20.0,Cel,16.9,Cel,16.5,Cel,,,,,4.0,KT,0.0,KT,,,1008.6,hPa,859.6,hPa,0.7,hPa,,850.0,hPa,1468.0,gpm,2.0,0.0,,,,,,0.0,mm,,,,10000.0,m,0,okta,,,,2.0,,,,,,,
Pakistan,N,Bannu|Ghari Pal,Bannu,41562.0,33.0,70.1,941.0,41562,12034,28.0,Cel,22.9,Cel,27.0,Cel,,,,,4.0,KT,0.0,KT,,,1002.0,hPa,957.6,hPa,1.1,hPa,,,,,,2.0,0.0,,,,,,,mm,,,,10000.0,m,0,okta,,,,2.0,,,,,,,
Pakistan,P,Faisal Abad|Tāriqābād,Faisal Abad,41630.0,31.433333333333334,73.1,183.0,41630,12034,28.5,Cel,25.0,Cel,26.5,Cel,,,,,4.0,KT,0.0,KT,,,999.9,hPa,,,-3.5,hPa,,,,,,2.0,0.0,,,,,,0.0,mm,,,,4000.0,m,0,okta,,,,1.0,4.0,3.0,h,0.0,,,
Pakistan,SD,Agan Wadero,Agan Wadero,41765.0,25.318139,68.366256,44.2,41765,12034,29.0,Cel,24.8,Cel,26.5,Cel,,,,,4.0,KT,8.0,KT,230.0,deg,1002.3,hPa,998.8,hPa,0.8,hPa,,,,,,2.0,0.0,,,,,,0.0,mm,,,,4000.0,m,0,okta,,,,2.0,,,,,,,
Pakistan,B,Quetta|Baleli,Brewery,41661.0,30.266666666666666,66.91666666666667,1620.0,41661,12034,14.5,Cel,6.1,Cel,13.5,Cel,,,,,4.0,KT,0.0,KT,,,1013.1,hPa,835.2,hPa,0.2,hPa,,850.0,hPa,1478.0,gpm,2.0,0.0,,,,,,0.0,mm,,,,2000.0,m,0,okta,,,,1.0,5.0,3.0,h,4.0,,,
Pakistan,PB,Layyah,Layyah,41670.0,31.016666666666666,70.96666666666667,152.0,41670,12034,28.5,Cel,24.2,Cel,27.0,Cel,,,,,4.0,KT,0.0,KT,,,,,,,,,,,,,,2.0,0.0,,,,,,,mm,,,,4000.0,m,0,okta,,,,1.0,4.0,3.0,h,0.0,,,
Pakistan,B,Ormara|Ormāra,Ormara,41760.0,25.217,64.632,8.0,41760,12034,28.0,Cel,25.2,Cel,24.0,Cel,,,,,4.0,KT,4.0,KT,270.0,deg,1005.3,hPa,1004.0,hPa,2.3,hPa,,,,,,2.0,0.0,,,,,,0.0,mm,,,,2000.0,m,5,okta,low,5.0,okta,1.0,4.0,3.0,h,0.0,,,
Pakistan,B,Pasni,Pasni,41759.0,25.266666666666666,63.48333333333333,4.0,41759,12034,26.5,Cel,26.3,Cel,24.0,Cel,,,,,4.0,KT,0.0,KT,,,1002.8,hPa,1002.2,hPa,1.3,hPa,,,,,,0.0,0.0,,,,,,0.0,mm,,,,2000.0,m,0,okta,,,,1.0,47.0,3.0,h,4.0,,,
Pakistan,B,Gawadar|Gwadar,Gawadar,41757.0,25.133333333333333,62.333333333333336,0.0,41757,12034,26.0,Cel,24.8,Cel,25.5,Cel,,,,,4.0,KT,0.0,KT,,,1004.6,hPa,1003.4,hPa,0.8,hPa,,,,,,2.0,0.0,,,,,,0.0,mm,,,,1000.0,m,3,okta,low,3.0,okta,1.0,10.0,3.0,h,4.0,,,
Pakistan,B,Jiwani|Laura,Jiwani,41756.0,25.066666666666663,61.8,56.0,41756,12034,27.0,Cel,25.6,Cel,21.0,Cel,,,,,4.0,KT,0.0,KT,,,1005.3,hPa,998.9,hPa,2.8,hPa,,,,,,2.0,0.0,,,,,,0.0,mm,,,,2000.0,m,4,okta,low,4.0,okta,1.0,10.0,3.0,h,0.0,,,
Pakistan,S,Nawabshah|Goth Qāzi Amin Ali,Nawabshah,41749.0,26.25,68.36666666666666,37.0,41749,12034,29.0,Cel,25.5,Cel,27.0,Cel,,,,,4.0,KT,4.0,KT,130.0,deg,1002.0,hPa,998.7,hPa,1.0,hPa,,,,,,2.0,0.0,,,,,,0.0,mm,,,,4000.0,m,0,okta,,,,2.0,,,,,,,
Pakistan,S,Larkana|Goth Sattar Khān Baloch,Larkana,41748.0,27.533,68.233,47.0,41748,12034,30.0,Cel,26.5,Cel,28.0,Cel,,,,,4.0,KT,2.0,KT,130.0,deg,1001.0,hPa,994.9,hPa,-1.1,hPa,,,,,,2.0,0.0,,,,,,0.0,mm,,,,4000.0,m,0,okta,,,,2.0,,,,,,,
Pakistan,S,Moen Jo Daro|Darya Khān Mangaria,Moen Jo Daro,41747.0,27.367,68.1,36.0,41747,12034,30.5,Cel,25.6,Cel,27.5,Cel,,,,,4.0,KT,0.0,KT,,,999.3,hPa,993.6,hPa,-0.8,hPa,,,,,,2.0,0.0,,,,,,0.0,mm,,,,4000.0,m,0,okta,,,,2.0,,,,,,,
Pakistan,S,Pad Idan|Sāleh Marri,Pad Idan,41746.0,26.85,68.13333333333334,46.0,41746,12034,29.0,Cel,26.2,Cel,27.0,Cel,,,,,4.0,KT,0.0,KT,,,1000.5,hPa,995.3,hPa,-1.0,hPa,,,,,,2.0,0.0,,,,,,0.0,mm,,,,4000.0,m,0,okta,,,,1.0,5.0,3.0,h,0.0,,,
Pakistan,N,Peshawar|Jim Khāna,Peshawar AP,41530.0,33.993914,71.514583,369.1,41530,12034,28.0,Cel,19.6,Cel,25.0,Cel,,,,,4.0,KT,4.0,KT,230.0,deg,1000.1,hPa,960.7,hPa,-3.6,hPa,,,,,,2.0,0.0,,,,,,0.0,mm,,,,4000.0,m,0,okta,,,,1.0,5.0,3.0,h,0.0,,,
Pakistan,B,Khuzdar|Muzzafarābad,Khuzdar,41744.0,27.83333333333333,66.63333333333334,1231.0,41744,12034,25.5,Cel,7.6,Cel,22.0,Cel,,,,,4.0,KT,0.0,KT,,,1001.7,hPa,870.1,hPa,-0.1,hPa,,850.0,hPa,1435.0,gpm,2.0,0.0,,,,,,0.0,mm,,,,4000.0,m,0,okta,,,,1.0,6.0,3.0,h,0.0,,,
Pakistan,S,Dadu|Balāwal,Dadu,41743.0,26.717,67.767,32.0,41743,12034,29.0,Cel,24.0,Cel,26.0,Cel,,,,,4.0,KT,0.0,KT,,,,,,,,,,,,,,2.0,0.0,,,,,,,mm,,,,4000.0,m,0,okta,,,,1.0,5.0,3.0,h,0.0,,,
Pakistan,B,Lasbella|Zober jo Goth,Lasbella,41742.0,26.233,66.167,153.0,41742,12034,28.5,Cel,25.0,Cel,20.8,Cel,,,,,4.0,KT,0.0,KT,,,1004.3,hPa,994.2,hPa,1.5,hPa,,,,,,2.0,0.0,,,,,,0.0,mm,,,,10000.0,m,0,okta,,,,2.0,,,,,,,
Pakistan,B,Panjgur|Panjgūr,Panjgur,41739.0,26.966666666666665,64.1,980.0,41739,12034,25.5,Cel,-0.3,Cel,23.0,Cel,,,,,4.0,KT,4.0,KT,270.0,deg,1006.1,hPa,899.7,hPa,-0.1,hPa,,850.0,hPa,1474.0,gpm,2.0,0.0,,,,,,0.0,mm,,,,4000.0,m,0,okta,,,,1.0,5.0,3.0,h,0.0,,,
Pakistan,B,Turbat New|Yusak,Turbat New,41738.0,26.016666666666666,63.06666666666667,134.0,41738,12034,27.5,Cel,17.2,Cel,26.5,Cel,,,,,4.0,KT,0.0,KT,,,1005.0,hPa,987.6,hPa,1.2,hPa,,,,,,2.0,0.0,,,,,,0.0,mm,,,,4000.0,m,0,okta,,,,2.0,,,,,,,
Pakistan,PB,Bhakkar,Bhakkar,41669.0,31.616666666666667,71.06666666666666,179.0,41669,12034,29.5,Cel,25.3,Cel,28.2,Cel,,,,,4.0,KT,0.0,KT,,,,,,,,,,,,,,2.0,0.0,,,,,,,mm,,,,4000.0,m,0,okta,,,,1.0,4.0,3.0,h,0.0,,,
Pakistan,S,Rohri|Lehti Faqīr,Rohri,41725.0,27.666666666666668,68.9,67.0,41725,12034,31.0,Cel,26.9,Cel,28.0,Cel,,,,,4.0,KT,2.0,KT,230.0,deg,1000.3,hPa,992.8,hPa,-0.9,hPa,,,,,,2.0,0.0,,,,,,0.0,mm,,,,4000.0,m,0,okta,,,,2.0,,,,,,,
Pakistan,P,Rahim Yar Khan|Kot Darya,Rahim Yar Khan,41716.0,28.433333333333334,70.31666666666666,83.0,41716,12034,29.5,Cel,25.3,Cel,26.8,Cel,,,,,4.0,KT,0.0,KT,,,1001.1,hPa,991.3,hPa,-1.2,hPa,,,,,,2.0,0.0,,,,,,,mm,,,,2000.0,m,0,okta,,,,1.0,4.0,3.0,h,0.0,,,
Pakistan,S,Jacobabad|Goth Fazli,Jacobabad AFB,41715.0,28.3,68.46666666666667,55.0,41715,12034,30.5,Cel,27.8,Cel,28.0,Cel,,,,,4.0,KT,0.0,KT,,,1000.7,hPa,994.4,hPa,-1.0,hPa,,,,,,2.0,0.0,,,,,,0.0,mm,,,,4000.0,m,0,okta,,,,1.0,5.0,3.0,h,0.0,,,
Pakistan,B,Dal Bandin|Dālbandīn,Dal Bandin,41712.0,28.883333333333333,64.4,848.0,41712,12034,23.0,Cel,0.0,Cel,22.0,Cel,,,,,4.0,KT,0.0,KT,,,1006.4,hPa,912.8,hPa,-0.1,hPa,,850.0,hPa,1464.0,gpm,2.0,0.0,,,,,,0.0,mm,,,,10000.0,m,0,okta,,,,2.0,,,,,,,
Pakistan,,Gilgit|Bioursing,Gilgit,41517.0,35.3,75.68333333333334,2180.0,41517,12034,14.0,Cel,8.6,Cel,13.2,Cel,,,,,4.0,KT,0.0,KT,,,1015.4,hPa,779.3,hPa,1.6,hPa,,850.0,hPa,1494.0,gpm,2.0,0.0,,,,,,,mm,,,,4000.0,m,0,okta,,,,2.0,,,,,,,
Pakistan,P,Bahawalpur Airport|Chak Seven,Bahawalpur Airport,41701.0,29.4,71.78333333333333,117.0,41701,12034,30.0,Cel,25.1,Cel,27.8,Cel,,,,,4.0,KT,6.0,KT,230.0,deg,1000.6,hPa,986.9,hPa,-1.3,hPa,,,,,,2.0,0.0,,,,,,,mm,,,,4000.0,m,0,okta,,,,1.0,4.0,3.0,h,0.0,,,
Pakistan,P,Bahawalpur|Chak Seven,Bahawalpur,41700.0,29.4,71.78333333333333,112.0,41700,12034,31.0,Cel,26.1,Cel,28.3,Cel,,,,,4.0,KT,2.0,KT,230.0,deg,998.6,hPa,986.8,hPa,-1.4,hPa,,,,,,2.0,0.0,,,,,,,mm,,,,4000.0,m,0,okta,,,,1.0,4.0,3.0,h,0.0,,,
Pakistan,B,Sibi|Hāji Dur Muhammad,Sibi,41697.0,29.55,67.88333333333334,133.0,41697,12034,30.0,Cel,23.5,Cel,28.5,Cel,,,,,4.0,KT,0.0,KT,,,1000.6,hPa,985.8,hPa,-0.9,hPa,,,,,,2.0,0.0,,,,,,0.0,mm,,,,10000.0,m,0,okta,,,,2.0,,,,,,,
Pakistan,B,Kalat|Ziārat Shāh-i-Mardān,Kalat,41696.0,29.03333333333333,66.58333333333333,2015.0,41696,12034,18.0,Cel,4.9,Cel,15.0,Cel,,,,,4.0,KT,0.0,KT,,,1012.8,hPa,799.0,hPa,0.7,hPa,,850.0,hPa,1493.0,gpm,2.0,0.0,,,,,,0.0,mm,,,,10000.0,m,0,okta,,,,2.0,,,,,,,
Pakistan,B,Bar Khan|Halqa Ādam,Bar Khan,41685.0,29.883333333333333,69.71666666666667,1097.0,41685,12034,24.0,Cel,18.7,Cel,22.0,Cel,,,,,4.0,KT,0.0,KT,,,1003.3,hPa,884.4,hPa,-0.2,hPa,,850.0,hPa,1442.0,gpm,2.0,0.0,,,,,,,mm,,,,10000.0,m,0,okta,,,,2.0,,,,,,,
Pakistan,P,Sahiwal|Montgomery,Sahiwal,41680.0,30.65,73.133,170.0,41680,12034,29.5,Cel,26.0,Cel,26.8,Cel,,,,,4.0,KT,0.0,KT,,,999.8,hPa,981.0,hPa,-2.5,hPa,,,,,,2.0,0.0,,,,,,0.0,mm,,,,2000.0,m,0,okta,,,,1.0,10.0,3.0,h,0.0,,,
Pakistan,PB,Kasur,Kasur,41679.0,31.1,74.46666666666667,191.0,41679,12034,29.0,Cel,26.2,Cel,27.0,Cel,,,,,4.0,KT,0.0,KT,,,,,,,,,,,,,,2.0,0.0,,,,,,0.0,mm,,,,4000.0,m,0,okta,,,,1.0,4.0,3.0,h,0.0,,,
Pakistan,P,Bahawalnagar|Hafizwāla,Bahawalnagar,41678.0,29.95,73.25,162.0,41678,12034,31.0,Cel,23.1,Cel,28.5,Cel,,,,,4.0,KT,0.0,KT,,,1000.1,hPa,,,-1.6,hPa,,,,,,2.0,0.0,,,,,,0.0,mm,,,,4000.0,m,0,okta,,,,1.0,5.0,3.0,h,0.0,,,
Pakistan,PB,Kot Addu,Kot Addu,41676.0,30.45,70.95,131.0,41676,12034,29.0,Cel,24.8,Cel,27.0,Cel,,,,,4.0,KT,4.0,KT,130.0,deg,1001.5,hPa,986.4,hPa,-3.3,hPa,,,,,,2.0,0.0,,,,,,,mm,,,,4000.0,m,0,okta,,,,1.0,4.0,3.0,h,0.0,,,
Pakistan,P,Multan|Cantonement,Multan,41675.0,30.2,71.43333333333334,122.0,41675,12034,30.0,Cel,23.5,Cel,29.0,Cel,,,,,4.0,KT,6.0,KT,180.0,deg,999.4,hPa,985.7,hPa,-2.6,hPa,,,,,,2.0,0.0,,,,,,0.0,mm,,,,2000.0,m,0,okta,,,,1.0,4.0,3.0,h,0.0,,,
Pakistan,P,Khanpur|Basti Galkālawāli,Khanpur,41718.0,28.65,70.68333333333334,87.0,41718,12034,31.0,Cel,25.4,Cel,28.9,Cel,,,,,4.0,KT,0.0,KT,,,999.5,hPa,989.7,hPa,-0.2,hPa,,,,,,2.0,0.0,,,,,,,mm,,,,2000.0,m,0,okta,,,,1.0,4.0,3.0,h,0.0,,,
Pakistan,B,Nokkundi|Gharībābād,Nokkundi,41710.0,28.816666666666663,62.75,682.0,41710,12034,22.5,Cel,-3.1,Cel,20.0,Cel,,,,,4.0,KT,0.0,KT,,,1002.8,hPa,927.8,hPa,-0.7,hPa,,,,,,2.0,0.0,,,,,,0.0,mm,,,,4000.0,m,0,okta,,,,1.0,6.0,3.0,h,0.0,,,
Pakistan,N,Saidu Sharif|Barkly,Saidu Sharif,41523.0,34.733333333333334,72.35,950.0,41523,12034,21.0,Cel,17.9,Cel,20.0,Cel,,,,,4.0,KT,0.0,KT,,,1005.6,hPa,901.0,hPa,-1.5,hPa,,850.0,hPa,1447.0,gpm,2.0,0.0,,,,,,0.0,mm,,,,10000.0,m,0,okta,,,,2.0,,,,,,,
Qatar,DW,Doha|Nu‘ayjah,Doha / Intl AP,41170.0,25.25,51.56666666666667,11.0,41170,12034,31.5,Cel,29.9,Cel,,,,,,,4.0,KT,2.0,KT,50.0,deg,1002.3,hPa,1001.0,hPa,1.4,hPa,,,,,,4.0,,,,,,,,,,,,4600.0,m,3,okta,low,3.0,okta,1.0,10.0,3.0,h,0.0,,,
Qatar,-,Umm Said|Umm Sa‘īd,Umm Said,41176.0,24.95,51.56666666666667,5.0,41176,12034,29.4,Cel,27.1,Cel,,,,,,,4.0,KT,4.0,KT,20.0,deg,1002.2,hPa,1001.6,hPa,,,,,,,,4.0,,,,,,,,,,,,3000.0,m,0,,,,,4.0,,,,,,,
Romania,VA,Birlad|Stroe Beloescu,Birlad,15197.0,46.23305555555555,27.64444444444445,172.0,15197,12034,17.7,Cel,17.3,Cel,,,,,,,4.0,KT,1.0,KT,240.0,deg,1006.6,hPa,986.3,hPa,,,7.0,,,,,2.0,1.0,,,,,,,mm,,,,9000.0,m,0,,,,,7.0,61.0,3.0,h,6.0,,,
Romania,CV,Lacaut Mountain|Pava,Lacaut Mountain,15262.0,45.82388888888889,26.375555555555557,1776.0,15262,12034,9.0,Cel,8.9,Cel,,,,,,,4.0,KT,7.0,KT,280.0,deg,1011.0,hPa,815.4,hPa,,,7.0,850.0,hPa,1432.0,gpm,2.0,3.0,,,,,,,mm,,,,50.0,m,0,okta,,,,1.0,61.0,3.0,h,6.0,,,
Romania,BS,Intorsura Buzaului|Merişor,Intorsura Buzaului,15261.0,45.66833333333334,26.05666666666667,707.0,15261,12034,14.5,Cel,14.2,Cel,,,,,,,4.0,KT,1.0,KT,270.0,deg,1010.0,hPa,928.5,hPa,,,4.0,925.0,hPa,740.0,gpm,2.0,0.7,,,,,,,mm,,,,11000.0,m,0,,,,,7.0,51.0,3.0,h,6.0,,,
Romania,CV,Sfintu Gheorghe|Chilieni,Sfintu Gheorghe,15238.0,45.87166666666667,25.802222222222223,523.0,15238,12034,15.4,Cel,14.9,Cel,,,,,,,4.0,KT,1.0,KT,210.0,deg,1008.0,hPa,947.2,hPa,,,4.0,925.0,hPa,726.0,gpm,2.0,1.0,,,,,,,mm,,,,20000.0,m,0,,,,,7.0,23.0,3.0,h,8.0,,,
Romania,VR,Adjud,Adjud,15219.0,46.10472222222222,27.170277777777777,101.0,15219,12034,17.8,Cel,17.2,Cel,,,,,,,4.0,KT,2.0,KT,320.0,deg,1005.9,hPa,993.8,hPa,,,7.0,,,,,2.0,1.0,,,,,,,mm,,,,9000.0,m,0,,,,,7.0,21.0,3.0,h,,,,
Romania,CV,Tirgu Secuesc|Tinoasa,Tirgu Secuesc,15217.0,45.992777777777775,26.115,568.0,15217,12034,15.1,Cel,14.9,Cel,,,,,,,4.0,KT,4.0,KT,190.0,deg,1007.8,hPa,941.9,hPa,,,7.0,925.0,hPa,723.0,gpm,2.0,3.0,,,,,,,mm,,,,4000.0,m,0,,,,,7.0,61.0,3.0,h,6.0,,,
Romania,CV,Baraolt|Tălişoara,Baraolt,15215.0,46.08083333333333,25.59583333333333,508.0,15215,12034,15.7,Cel,15.0,Cel,,,,,,,4.0,KT,2.0,KT,260.0,deg,1007.8,hPa,948.8,hPa,,,7.0,925.0,hPa,725.0,gpm,2.0,2.0,,,,,,,mm,,,,18000.0,m,0,,,,,7.0,61.0,3.0,h,6.0,,,
Romania,BA,Tirgu Ocna|Pârâu Boghii,Tirgu Ocna,15194.0,46.272777777777776,26.641111111111112,242.0,15194,12034,16.8,Cel,16.8,Cel,,,,,,,4.0,KT,0.0,KT,200.0,deg,1006.5,hPa,978.1,hPa,,,7.0,,,,,2.0,2.0,,,,,,,mm,,,,2700.0,m,0,,,,,7.0,81.0,3.0,h,8.0,,,
Romania,HA,Miercurea Ciuc|Miercurea-Ciuc,Miercurea Ciuc,15170.0,46.37138888888889,25.7725,661.0,15170,12034,14.7,Cel,14.4,Cel,,,,,,,4.0,KT,1.0,KT,200.0,deg,1007.3,hPa,931.1,hPa,,,7.0,925.0,hPa,718.0,gpm,2.0,1.0,,,,,,,mm,,,,6000.0,m,8,okta,,,,1.0,61.0,3.0,h,6.0,,,
Romania,HA,Odorheiu|Arvăţeni,Odorheiu,15168.0,46.29666666666667,25.291666666666668,523.0,15168,12034,15.5,Cel,14.9,Cel,,,,,,,4.0,KT,1.0,KT,280.0,deg,1007.8,hPa,947.0,hPa,,,7.0,925.0,hPa,724.0,gpm,2.0,1.0,,,,,,,mm,,,,18000.0,m,0,,,,,7.0,81.0,3.0,h,8.0,,,
Romania,VA,Vaslui|Chiţoc,Vaslui,15154.0,46.64611111111111,27.71444444444445,116.0,15154,12034,18.2,Cel,18.1,Cel,,,,,,,4.0,KT,1.0,KT,80.0,deg,1005.8,hPa,992.1,hPa,,,4.0,,,,,2.0,1.0,,,,,,,mm,,,,3200.0,m,0,,,,,7.0,62.0,3.0,h,6.0,,,
Romania,BA,Bacau|Ruşi-Ciutea,Bacau,15150.0,46.55777777777778,26.89666666666667,174.0,15150,12034,17.5,Cel,17.3,Cel,,,,,,,4.0,KT,0.0,KT,180.0,deg,1006.5,hPa,985.9,hPa,,,7.0,,,,,2.0,0.0,,,,,,,mm,,,,4400.0,m,8,okta,low,5.0,okta,1.0,10.0,3.0,h,6.0,,,
Romania,HA,Luizi Calugara|Bucin,Luizi Calugara,15148.0,46.64888888888889,25.296388888888888,1282.0,15148,12034,11.5,Cel,11.5,Cel,,,,,,,4.0,KT,0.0,KT,190.0,deg,1008.7,hPa,864.6,hPa,,,7.0,850.0,hPa,1426.0,gpm,2.0,0.0,,,,,,,mm,,,,2200.0,m,0,,,,,7.0,10.0,3.0,h,1.0,,,
Romania,HA,Joseni|Pârâu Sumuleu,Joseni,15127.0,46.70583333333333,25.5125,750.0,15127,12034,13.8,Cel,13.4,Cel,,,,,,,4.0,KT,1.0,KT,340.0,deg,1008.2,hPa,921.9,hPa,,,7.0,925.0,hPa,723.0,gpm,2.0,0.5,,,,,,,mm,,,,9000.0,m,0,,,,,7.0,10.0,3.0,h,1.0,,,
Romania,VA,Negresti|Valea Mare,Negresti,15113.0,46.83805555555556,27.442222222222224,133.0,15113,12034,17.8,Cel,17.8,Cel,,,,,,,4.0,KT,2.0,KT,120.0,deg,1006.0,hPa,990.2,hPa,,,4.0,,,,,2.0,0.0,,,,,,,mm,,,,8000.0,m,0,,,,,7.0,20.0,3.0,h,,,,
Romania,NE,Roman|Traian,Roman,15111.0,46.969166666666666,26.911944444444444,216.0,15111,12034,17.1,Cel,16.5,Cel,,,,,,,4.0,KT,2.0,KT,310.0,deg,1005.4,hPa,980.1,hPa,,,7.0,,,,,2.0,0.6,,,,,,,mm,,,,7000.0,m,0,,,,,7.0,23.0,3.0,h,,,,
Romania,NE,Piatra Neamt|Gura Văii,Piatra Neamt,15109.0,46.93361111111111,26.389444444444443,360.0,15109,12034,16.0,Cel,15.8,Cel,,,,,,,4.0,KT,1.0,KT,310.0,deg,1006.5,hPa,964.5,hPa,,,7.0,,,,,2.0,13.0,,,,,,,mm,,,,4000.0,m,0,,,,,7.0,61.0,3.0,h,6.0,,,
