Country,Region,Place_Name,Station_Name,WMO,Latitude,Longitude,Elevation
Afghanistan,BAL,Kyzylabad|Mazar-I-Sharif|Qizilābād,Kyzylabad,40911.0,36.7,67.2,392.3
Afghanistan,BAL,Shor-Tipa|Shor Tepe,Shor-Tipa,40910.0,37.333,66.85,274.0
Afghanistan,BAM,Gorvana|Sar Āsyāb,Gorvana,40945.0,34.81666666666667,67.81666666666666,2573.0
Afghanistan,BAM,Kala-Nau|Pan Jao|Dahan-e Mūr,Kala-Nau,40946.0,34.3980556,67.0219444,2813.0
Afghanistan,BDG,Chākarān|Qala-I-Naw|Qala i Naw,Chakaran,40937.0,35.0,63.11666666666667,904.7
Afghanistan,BDG,Kabuli Farari,Kabuli Farari,40923.0,35.583333333333336,63.31666666666667,475.0
Afghanistan,BDG,Towraghondt|Towraghondi|Tōraghūnḏī,Towraghondt,40921.0,35.233333333333334,62.28333333333333,684.0
Afghanistan,BDG,Zaysalekh|Qades|Qādis,Zaysalekh,40939.0,34.8,63.4166667,1284.0
Afghanistan,BDS,Feyzabad|Kūrī,Feyzabad,40904.0,37.11666666666667,70.51666666666667,1171.1
Afghanistan,BDS,Gāwin Darah|Iskachem|Gāwen Darah,Eshkashem,40918.0,36.7,71.56666666666666,2620.0
Afghanistan,BDS,Keshm|Balūch,Keshm,40917.0,36.85,70.0833333,908.0
Afghanistan,BDS,Kevron|Darwaz|Nūsay,Kevron,40900.0,38.4616667,70.8819444,1533.0
Afghanistan,BDS,Namaz-i-Pas|Khwahan|Sang Āb,Namaz-i-Pas,40901.0,37.8833333,70.2,970.0
Afghanistan,BDS,Shighnan|Sheghnan|Sar Chashmah,Shighnan,40905.0,37.56666666666667,71.5,2042.0
Afghanistan,BDS,Urūsak|Fayzabad,Urūsak,99881.0,37.117,70.567,1200.0
Afghanistan,BDS,Zebak|Istich,Zebak,40920.0,36.5,71.25,4412.0
Afghanistan,BGL,Puzayi-Ishan|Baghlan-Farm|Pōzah-ye Ayshān,Puzayi-Ishan,40914.0,36.1,68.65,554.0
Afghanistan,BGL,Salangi-Shamali|North-Salang Tunnel|Sālang-e Shamālī,Salangi-Shamali,40930.0,35.31666666666667,69.01666666666667,3366.0
Afghanistan,FRA,Farah|Kalayi-Gulyamsheykhi,Farah,40974.0,32.36666666666667,62.18333333333333,674.2
Afghanistan,FRA,Kalayi-Mirza-Aslam|Shindand|Qal‘ah-ye Mīrzā Aslam,Kalayi-Mirza-Aslam,40957.0,33.4,62.28333333333333,1152.2
Afghanistan,FRA,Qal‘ah-ye Gīm|Gulistan|Qal‘ah-ye Kuhnah,Qal‘ah-ye Gīm,40975.0,32.6166667,63.6666667,1424.0
Afghanistan,FRA,Solţān-e Bakvā,Solţān-e Bakvā,40973.0,32.233,62.967,722.0
Afghanistan,FYB,Andkhoi|Yāmchī,Andkhoi,40906.0,36.93333333333333,65.11666666666666,315.0
Afghanistan,FYB,Maimana|Maimama|Khwājah Paytāgh,Mimana,40922.0,35.93333333333333,64.76666666666667,838.8
Afghanistan,FYB,Qaisar|Muḩammad Khwājah,Qaisar,40925.0,35.666666666666664,64.26666666666667,1211.0
Afghanistan,GHA,Gorg Koshteh|Okak|Ōkak,Gorg Koshteh,40966.0,33.883,67.95,3115.0
Afghanistan,GHA,Kala-Navi-Khodzharoshnay|Ghazni|Kala-Navi-Sarm-Reg,Kala-Navi-Khodzharoshnay,40968.0,33.53333333333333,68.41666666666667,2175.0
Afghanistan,GHA,Kala-Navi-Khodzharoshnay|Kala-Navi-Sarm-Reg,Kala-Navi-Khodzharoshnay,40960.0,33.533,68.417,2183.0
Afghanistan,GHA,Kamaruddin-Kala|Mokur|Qamaruddīn Kêlay,Kamaruddin-Kala,40980.0,32.833333333333336,67.78333333333333,2003.0
Afghanistan,GHO,Chagcharan|Chakhcharan,Chagcharan|Chakhcharan,40942.0,33.53333333333333,65.26666666666667,2278.4
Afghanistan,GHO,Ghelmeen|Khalay,Ghelmeen,40941.0,34.8833333,65.3,1997.0
Afghanistan,GHO,Korab|Shahrak,Korab,40943.0,34.1,64.3,2405.0
Afghanistan,GHO,Kotayi-Gili|Lal|Kōtah-ye Gilī,Kotayi-Gili,40944.0,34.5058333,66.2997222,2835.0
Afghanistan,HEL,Anjarak|Kajaki|Chaīdār,Anjarak,40976.0,32.1666667,65.1,1390.0
Afghanistan,HEL,Deshu|Deshoo|‘Alāqahdārī Dīshū,Deshu,40996.0,30.433333333333334,63.3,588.0
Afghanistan,HEL,Karez|Bust|Kārēz,Karez,40988.0,31.55,64.36666666666666,775.0
Afghanistan,HEL,Lashkargah|‘Aynak,Lashkargah,40978.0,31.5,64.333,762.0
Afghanistan,HER,Islam-Qala|Lūkah Sang,Islam-Qala,40935.0,34.65,61.583333333333336,986.0
Afghanistan,HER,Obe|Obeh|Murghchah-ye Bālā,Obe,40940.0,34.36666666666667,63.15,1298.0
Afghanistan,HER,Rabati-Sakhibzada|Herat|Guz̄arah,Rabati-Sakhibzada,40938.0,34.21666666666667,62.21666666666667,1002.8
Afghanistan,JOW,Bakawul Khurāsān|Shebirghan|Sheberghan|Bakowl Khurāsān,Bakawul Khurāsān,40908.0,36.666666666666664,65.71666666666667,359.0
Afghanistan,JOW,Kumpete|Qar-Qin|Qarqin|Qarqīn,Kumpete,40909.0,37.416666666666664,66.08333333333333,265.0
Afghanistan,KAB,Bagi-Talay|Paghman|Bāgh-e Tapah,Bagi-Talay,40947.0,34.5833333,68.9833333,2183.0
Afghanistan,KAB,Kalayi-Vazir|Kabul International|Kalayi-Mir-Abbas,Kalayi-Vazir,40948.0,34.55,69.21666666666667,1791.3
Afghanistan,KAB,Karizimir|Kārēz-e Mīr,Karizimir,40949.0,34.63333333333333,69.05,1924.0
Afghanistan,KAB,Shirinkalay|Sarobi|Shīrīn Kêlay,Shirinkalay,40951.0,34.583333333333336,69.75,1057.0
Afghanistan,KAN,Kandahar|Shahr-e Now,Kandahar,69314.0,31.62,65.7,0.0
Afghanistan,KAN,Khushab|Kandahar|Khōsh Āb,Khushab / Intl AP,40990.0,31.5,65.85,1017.4
Afghanistan,KDZ,Konduz|Kunduz|Nasiri,Konduz,40913.0,36.666666666666664,68.91666666666667,444.1
Afghanistan,KDZ,Nasiri,Nasiri,99876.0,36.667,68.917,433.0
Afghanistan,KNR,Asmar|Srah Darah,Asmar,40934.0,35.0166667,71.4333333,1784.0
Afghanistan,LAG,Laghman|Tirgali,Laghman,40952.0,34.65,70.21666666666667,728.0
Afghanistan,LOW,Logar|Hārūn Khēl Muhajirīn,Logar,40950.0,34.1,69.05,1886.0
Afghanistan,NAN,Ghaziabad|Gaziabad,Ghaziabad,40953.0,34.31666666666667,70.76666666666667,487.0
Afghanistan,NAN,Jalalabad|Narmasi,Jalalabad / MIL,40954.0,34.43333333333333,70.46666666666667,561.1
Afghanistan,NIM,Char-Burjack|Chahār Burjak,Char-Burjack,40995.0,30.283,62.033,519.0
Afghanistan,NIM,Zaranj|Jān Muḩammad,Zaranj,40986.0,31.0,61.85,494.0
Afghanistan,ORU,Tirin Kot|Chīnah,Tirin Kot,40977.0,32.61666666666667,65.86666666666666,1334.0
Afghanistan,PAR,Bagram|Ḩasan Khēl,Bagram,69728.0,34.95,69.27,1492.0
Afghanistan,PAR,Jabul-Saraj|‘Ishqābād,Jabul-Saraj,40932.0,35.13333333333333,69.25,1695.0
Afghanistan,PAR,South-Salang|Gowārah Sang,South-Salang,40931.0,35.3,69.06666666666666,2992.0
Afghanistan,PIA,Gardez|Khwājah Ḩasan-e ‘Ulyā,Gardez,40970.0,33.61666666666667,69.23333333333333,2337.0
Afghanistan,PIA,Khost|Chōghay,Chapman,40971.0,33.35,69.95,1151.0
Afghanistan,PKA,Urgoon|Malakyār Kêlay,Urgoon,40984.0,32.916666666666664,69.13333333333334,2331.0
Afghanistan,PKA,Wazakhwa|Wazakhaw|Wāşil Khēl,Wazakhwa,40981.0,32.2,68.35,2269.0
Afghanistan,SAM,Aiback|Larghān,Aiback,40912.0,36.3,68.0,943.0
Afghanistan,SAM,Hairatan|Ḩaīratān,Hairatan,40916.0,37.21666666666667,67.41666666666667,303.0
Afghanistan,SAM,Kaldar|Bāzārak,Kaldar,40924.0,37.2,67.7333333,298.0
Afghanistan,TAK,Taloqan|Shāh Mardān Bēg,Taloqan,40915.0,36.733,69.5,780.0
Afghanistan,TAK,Yangi Qala|Yangiqala|Mullā Bēg Muḩammad,Yangi Qala,40928.0,37.4666667,69.6666667,595.0
Afghanistan,WAR,Behsood|Sar-e Sarāb,Behsood,40967.0,34.3,67.85,3166.0
Afghanistan,WAR,Hajigak|Qōl-e Dādī,Hajigak,40933.0,34.5833333,68.1,3863.0
Afghanistan,ZAB,Kalat|Qalāt,Kalat,40979.0,32.1166667,66.9,1625.0
United Arab Emirates,AZ,Abu Dhabi|Madīnat Khalīfah B,Abu Dhabi / Intl AP,41217.0,24.433333333333334,54.65,16.0
United Arab Emirates,AZ,Abu Dhabi|Minţaqat al Maţār,Bateen AP,41216.0,24.433333333333334,54.46666666666667,5.0
United Arab Emirates,AZ,Al Ain|Alain|Al Jaḩr,Al Ain / Intl AP,41218.0,24.266666666666666,55.6,265.0
United Arab Emirates,AZ,Al Dhafra|Al Muqaţţarah,Al Dhafra,69810.0,24.25,54.55,23.0
United Arab Emirates,AZ,Medina Zayed|Sikkat al Khayl,Medina Zayed,41226.0,23.633333333333333,53.63333333333333,121.0
United Arab Emirates,DU,Dubai World Central-dwc,Dubai World Central-dwc,41200.0,24.896944444444443,55.16111111111111,19.0
United Arab Emirates,DU,Dubai|Būr Sa‘īd|Aţ Ţawār,Dubai / Intl AP,41194.0,25.25,55.333333333333336,8.0
United Arab Emirates,FU,Fujairah|Şūr,Fujairah Intl AP,41198.0,25.1,56.333333333333336,31.0
United Arab Emirates,RK,Ras Al Khaimah|Ras-Al-Khaima|Al Ḩamrānīyah,Ras Al Khaimah,41184.0,25.616666666666667,55.93333333333333,31.0
United Arab Emirates,SH,Sharjah|Muwafjah,Sharjah Intl AP,41196.0,25.333333333333332,55.516666666666666,35.0
Armenia,AG,Aparan Jrambar,Aparan Jrambar,37770.0,40.48444444444444,44.43611111111111,1842.0
Armenia,AR,Zangakatun|Ananun Canyon,Ananun Canyon,37878.0,39.830555555555556,44.99194444444444,2122.0
Armenia,ARM,Merdzavan|Mertsavan,Merdzavan,37783.0,40.18555555555555,44.40416666666667,942.0
Armenia,GR,Yanikh|Yanygh|Yanykh,Yanikh,37873.0,39.95444444444445,45.24611111111111,2334.0
Armenia,KT,Hankavan|Hank'avan|Ankavan,Hankavan,37698.0,40.63388888888889,44.48361111111111,1991.58
Armenia,VAY,Areni|Danzik|Areny,Areni,37875.0,39.727222222222224,45.18833333333333,1009.0
Armenia,VL,Amasija|Amasia,Amasija,37682.0,40.95,43.783611111111114,1876.0
Armenia,VL,Amberd|Antarut,Koshabulakh,37782.0,40.385555555555555,44.26027777777778,2071.1
Armenia,VL,Aparan|Kasakh,Aparan,37699.0,40.59444444444444,44.36388888888889,1889.0
Armenia,VL,Aragac H|Antarut,Mount Aragats,37781.0,40.47222222222222,44.181111111111115,3227.0
Armenia,VL,Aragats,Aragats,37774.0,40.3167,43.6667,1255.0
Armenia,VL,Ararat|Yeghegnadzor,Ararat,37876.0,39.7667,45.3333,1317.0
Armenia,VL,Artashat|Emince,Artashat,37874.0,39.83138888888889,44.708333333333336,818.0
Armenia,VL,Artashat|Tazeköy,Artashat,37871.0,39.95861111111111,44.5475,829.3
Armenia,VL,Artik|Art'ik,Artik,37689.0,40.623333333333335,43.955,1724.0
Armenia,VL,Ashotsk|Ashots'k',Ashotsk,37609.0,41.029444444444444,43.87638888888889,2012.0
Armenia,VL,Ashtarak|Mashtots,Ashtarak,37785.0,40.294444444444444,44.342777777777776,1090.0
Armenia,VL,Bagratashen,Bagratashen,37626.0,41.24527777777778,44.82555555555555,450.7
Armenia,VL,Berd|Aygepar,Berd,37713.0,40.9167,45.4667,692.0
Armenia,VL,Dilizan,Dilizan,37706.0,40.74111111111111,44.86555555555555,1256.1
Armenia,VL,Djermuk|Jermuk,Djermuk,37882.0,39.833888888888886,45.67111111111111,2064.37
Armenia,VL,Egvard|Yeghvard,Egvard,37786.0,40.312222222222225,44.48277777777778,1336.4
Armenia,VL,Goris,Goris / Stream,37953.0,39.518055555555556,46.33833333333333,1550.0
Armenia,VL,Gumri|Leninakan|Gyumri,Gumri,37686.0,40.76277777777778,43.85583333333334,1513.0
Armenia,VL,Idzevan|Ijevan,Idzevan,37711.0,40.87166666666667,45.147222222222226,732.4
Armenia,VL,Jagbur-in-Armenia|Dzadzur|Dzhadzhur,Jagbur-in-Armenia,37683.0,40.8667,43.95,1798.0
Armenia,VL,Kadjaran|K’ajaran,Kadjaran,37950.0,39.15277777777778,46.159166666666664,1842.72
Armenia,VL,Kafan|Agkend,Kafan,37959.0,39.204166666666666,46.46222222222222,704.3
Armenia,VL,Kamor,Kamor,37801.0,40.34861111111111,45.12555555555556,1960.0
Armenia,VL,Kirovakan|Zhdanov,Kirovakan,37704.0,40.83888888888889,44.434444444444445,1375.93
Armenia,VL,Krasnosel'sk,Krasnosel'sk,37719.0,40.60111111111111,45.349444444444444,1852.8
Armenia,VL,Lusavan,Charentsava,37791.0,40.39527777777778,44.68277777777778,1799.71
Armenia,VL,Martuni,Martuni / No.2,37808.0,40.136944444444445,45.29694444444444,1943.3
Armenia,VL,Mec Mazra|Mets Masrik,Mec Mazra,37815.0,40.2075,45.76444444444444,1939.1
Armenia,VL,Megri|Meghri,Megri,37958.0,38.897777777777776,46.2425,626.56
Armenia,VL,Odzun,Odzun,37627.0,41.06027777777778,44.610277777777775,1105.34
Armenia,VL,Oktemberyan|Myasnikyan,Oktemberyan,37787.0,40.13722222222222,44.0475,861.0
Armenia,VL,Pushkini Iernantck|Gezaldara,Pushkini Iernantck,37694.0,40.909166666666664,44.43472222222222,2065.76
Armenia,VL,Razdan,Razdan,37792.0,40.492777777777775,44.76111111111111,1765.0
Armenia,VL,Sevan,Sevan,37709.0,40.55,44.9333,1916.0
Armenia,VL,Sevan Ozero|Tsamakaberd,Sevan Ozero,37717.0,40.56527777777778,45.00833333333333,1917.23
Armenia,VL,Sevan|Semyonovka,Sevan,37708.0,40.65972222222222,44.89805555555556,2104.2
Armenia,VL,Shorja|Shorzha,Shorja,37802.0,40.50055555555556,45.27166666666667,1917.23
Armenia,VL,Sisian,Sisian / Stream,37897.0,39.52027777777778,46.02972222222222,1580.09
Armenia,VL,Spitak,Spitak,37695.0,40.8333,44.2667,1555.0
Armenia,VL,Stepanavan|Lori Berd,Stepanavan,37693.0,41.00194444444445,44.41277777777778,1397.23
Armenia,VL,Talin|T’alin,Talin,37772.0,40.38638888888889,43.893055555555556,1636.85
Armenia,VL,Tashir|Kalinino,Tashir,37618.0,41.11666666666667,44.27916666666667,1507.03
Armenia,VL,Tcahkahovit|Tsaghkahovit,Tcahkahovit,37690.0,40.62638888888889,44.221111111111114,2100.8
Armenia,VL,Tovuz|Yeghnajur,Tovuz,37642.0,41.1,43.55,333.0
Armenia,VL,Urcadzor|Chimankend,Urcadzor,37872.0,39.91972222222222,44.827222222222225,1063.92
Armenia,VL,Vorotani Lernantck|Ughedzor,Vorotani Lernantck,37880.0,39.69305555555555,45.711666666666666,2387.45
Armenia,VL,Yerevan|Davtashen,Yerevan,37789.0,40.195277777777775,44.51222222222222,1113.4
Armenia,VL,Yerevan|P’arak’ar,Yerevan,37788.0,40.15138888888889,44.403888888888886,860.0
Azerbaijan,-,Baku|Binǝ,Heydar Aliyev Intl AP|Bina Staraya|Bina Intl AP,37864.0,40.45,50.06666666666667,-5.0
Azerbaijan,-,Baku|Chërnyy Gorod,Baku / MET OBS,37850.0,40.3833,49.85,47.0
Azerbaijan,-,Julfa|Dzul'Fa|Culfa,Julfa,37947.0,38.95,45.63333333333333,714.0
Azerbaijan,-,Lankaran|Germatyuk,Lankaran / Stream,37985.0,38.733333333333334,48.833333333333336,-13.0
Azerbaijan,-,Mam,Mam,37848.0,40.033,48.5,235.0
Azerbaijan,-,Paragachay|Parağaçay,Paragachay,37946.0,39.11666666666667,45.983333333333334,2217.0
Azerbaijan,-,Qaraxanlı,Qaraxanlı,37637.0,41.017,45.65,374.0
Azerbaijan,-,Shaki|Stcheki|Qoxmuq,Shaki,37661.0,41.21666666666667,47.166666666666664,639.0
Azerbaijan,-,Shusha|Susa,Shusha,37899.0,39.766666666666666,46.75,1358.0
Azerbaijan,-,Sım,Sım,37988.0,38.5,48.633,536.0
Azerbaijan,-,Xǝlǝc,Xǝlǝc,37761.0,40.917,49.05,518.0
Azerbaijan,-,Yevlakh|Evlakh|Yevlax,Yevlakh AP,37747.0,40.61666666666667,47.15,13.0
Azerbaijan,-,Zardab|Badzhirovan,Zardab,37835.0,40.2,47.21666666666667,-6.0
Azerbaijan,AGA,Agstapha|Akstafa|Karagasanly,Agstapha AP,37639.0,41.13333333333333,45.416666666666664,331.0
Azerbaijan,AGA,Jeyranchel|Djeyrancelskaj-step'|Poylu,Jeyranchel,37636.0,41.3,45.46666666666667,410.0
Azerbaijan,AST,Astara,Astara / Stream,37989.0,38.45,48.88333333333333,-23.0
Azerbaijan,BA,Alyat|Alyaty,Alyat / Point,37923.0,39.96666666666667,49.4,-18.0
Azerbaijan,BA,Baku (Khurdalan)|Khodzhi-Gasan,Baku (Khurdalan),37851.0,40.416666666666664,49.78333333333333,81.0
Azerbaijan,BA,Baku|Maştağa,Zabrat AP,37853.0,40.5,49.983333333333334,-5.0
Azerbaijan,BA,Chilov Island|Jiloy,Chilov Island,37869.0,40.333333333333336,50.61666666666667,-17.0
Azerbaijan,BA,Mashtaga|Maştağa,Mashtaga,37860.0,40.53333333333333,50.0,27.0
Azerbaijan,BA,Neft Dashlary|Jiloy,Neft Dashlary,37861.0,40.233333333333334,50.81666666666667,-17.0
Azerbaijan,BA,Pirallahi|Artyom,Pirallahi,37866.0,40.46666666666667,50.31666666666667,-26.0
Azerbaijan,BA,Puta,Puta,37856.0,40.3,49.7,8.0
Azerbaijan,BA,Shubany|Şubanı,Shubany,37852.0,40.36666666666667,49.766666666666666,237.0
Azerbaijan,BAR,Boyat|Bǝrdǝ,Boyat,37832.0,40.36666666666667,47.11666666666667,67.0
Azerbaijan,BEY,Zdanovsk|Dünyamalılar,Beylagan AD,37905.0,39.766666666666666,47.75,69.0
Azerbaijan,BIL,Bilasuvar|Zyud Island|Pushkino,Bilasuvar,37972.0,39.46666666666667,48.55,2.0
Azerbaijan,DAS,Dashkasan|Qazaxyolçular,Dashkasan,37816.0,40.46666666666667,46.083333333333336,1655.0
Azerbaijan,DAS,Shamkir Gyol-Gyol|Tapan,Shamkir Gyol-Gyol,37813.0,40.5,45.88333333333333,2475.0
Azerbaijan,EZC,Gyoytapa|Prishib|Lenino,Gyoytapa,37978.0,39.7,48.6,2.0
Azerbaijan,FUZ,Fizuli,Fizuli,37907.0,39.6,47.15,439.0
Azerbaijan,GAD,Kedabek|Zakhmetkend,Kedabek,37729.0,40.68333333333333,45.81666666666667,1480.0
Azerbaijan,GOR,Naftalan Airport|Goranboy,Naftalan Airport,37746.0,40.6,46.8,199.0
Azerbaijan,GOY,Geokchai|Göyçay,Geokchai / Stream,37749.0,40.65,47.75,94.0
Azerbaijan,HAC,Gazimammad|Dagkhilya,Gazimammad AD,37849.0,40.016666666666666,48.916666666666664,-7.0
Azerbaijan,IMI,Imishly|Imishli,Imishly,37914.0,39.86666666666667,48.05,-3.0
Azerbaijan,ISM,Ismailly|Mican,Ismailly,37750.0,40.78333333333333,48.13333333333333,549.0
Azerbaijan,KAL,Istisu|Bagyrsag,Istisu,37883.0,39.93333333333333,45.96666666666667,2294.0
Azerbaijan,KUR,Kjurdamir|Atakişili,Kjurdamir,37844.0,40.333333333333336,48.166666666666664,2.0
Azerbaijan,LAC,Lachin|Koynashen,Lachin,37898.0,39.65,46.53333333333333,1094.0
Azerbaijan,LER,Kalvaz|Khiveri,Kalvaz,37952.0,38.666666666666664,48.38333333333333,1830.0
Azerbaijan,LER,Lerik,Lerik,37984.0,38.766666666666666,48.4,1113.0
Azerbaijan,MI,Mingecaur|Mingǝçevir,Mingecaur,37744.0,40.766666666666666,47.05,93.0
Azerbaijan,NEF,Neftchala|Karavelli,Neftchala,37925.0,39.4,49.25,-25.0
Azerbaijan,NX,Nakchivan|Nakhchivan,Nakchivan,37936.0,39.2,45.416666666666664,885.0
Azerbaijan,NX,Ordubad|Yukhary Andamich,Ordoubat,37957.0,38.916666666666664,46.016666666666666,785.0
Azerbaijan,NX,Shahbuz|Şahbuz,Shahbuz,37941.0,39.4,45.56666666666667,1199.0
Azerbaijan,NX,Sharur|Norashen,Sharur,37877.0,39.55,44.96666666666667,813.0
Azerbaijan,OGU,Oguz|Vartaşenqışlaq,Oguz,37668.0,41.06666666666667,47.46666666666667,583.0
Azerbaijan,QAB,Vartashen|Qutqashen,Vartashen,37740.0,40.983333333333334,47.86666666666667,679.0
Azerbaijan,QAX,Saribash|Sarıbaş,Saribash,37590.0,41.53333333333333,47.06666666666667,1790.0
Azerbaijan,QBA,Giriz|Qrız,Giriz,37674.0,41.21666666666667,48.233333333333334,2071.0
Azerbaijan,QBA,Khaltan|Nyutakh,Khaltan,37677.0,41.0,48.7,1104.0
Azerbaijan,QBA,Khinalig|Xınalıq,Khinalig,37676.0,41.18333333333333,48.13333333333333,2301.0
Azerbaijan,QBA,Kuba|Quba,Kuba,37675.0,41.36666666666667,48.516666666666666,550.0
Azerbaijan,QOB,Shemakha|Mǝrǝzǝ,Shemakha,37756.0,40.53333333333333,48.93333333333333,755.0
Azerbaijan,SAB,Sabirabad,Sabirabad,37843.0,40.016666666666666,48.46666666666667,-17.0
Azerbaijan,SAL,Salyan|Kür Qaraqaşlı,Salyan,37913.0,39.583333333333336,48.96666666666667,-22.0
Azerbaijan,SAT,Jafarkhan|Ukrainskiye Otruba,Jafarkhan,37912.0,39.93333333333333,48.53333333333333,-16.0
Azerbaijan,SKR,Shamkir|Şǝmkir,Shamkir,37734.0,40.833333333333336,46.03333333333333,404.0
Azerbaijan,SM,Sumgait|Sumqayit,Sumgait / Stream,37769.0,40.6,49.63333333333333,-20.0
Azerbaijan,SMI,Maraza|Şamaxı,Maraza,37759.0,40.63333333333333,48.63333333333333,902.0
Azerbaijan,SMX,Ganja|Gyandzha|Gyanca|Quşqara,Ganja Intl APT|Gyandzha APT|Gyanca APT,37736.0,40.733333333333334,46.4,327.0
Azerbaijan,SMX,Kirovabad|Tatly,Kirovabad,37735.0,40.71666666666667,46.416666666666664,309.0
Azerbaijan,TAR,Mirbasir|Zolgeran,Mirbasir,37831.0,40.35,47.016666666666666,226.0
Azerbaijan,XAC,Hacmas|Qalaqan,Hacmas,37673.0,41.416666666666664,48.88333333333333,27.0
Azerbaijan,XAN,Gyoy-Gyol|Toğanalı,Gyoy-Gyol,37825.0,40.416666666666664,46.333333333333336,1606.0
Azerbaijan,XCI,Agdam|Sardarashen,Agdam AGCM,37893.0,39.983333333333334,46.75,250.0
Azerbaijan,XCI,Khojaly Airport|Xocalı,Khojaly Airport,37896.0,39.9,46.78333333333333,612.0
Azerbaijan,XCI,Stepanakert|Sardarashen,Stepanakert,37895.0,39.983333333333334,46.75,827.0
Azerbaijan,XIZ,Konagkend|Altıağac,Konagkend,37753.0,40.86666666666667,48.93333333333333,1099.0
Azerbaijan,XIZ,Nabran,Nabran,37670.0,41.78333333333333,48.7,-16.0
Azerbaijan,XVD,Khojavand|Novyy Karanlug,Khojavand,37901.0,39.78333333333333,47.1,414.0
Azerbaijan,YAR,Yardimli|Bozayran,Yardimli,37981.0,38.9,48.25,792.0
Azerbaijan,ZAN,Minjivan|Dellyakli,Minjivan,37968.0,39.0,46.666666666666664,312.0
Azerbaijan,ZAQ,Alibay|Meşleş,Alibay,37579.0,41.65,46.71666666666667,1747.0
Azerbaijan,ZAQ,Danachy|Danaçı,Danachy,37578.0,41.55,46.4167,202.0
Azerbaijan,ZAQ,Zakataly|Okhakhdere,Zakataly,37575.0,41.666666666666664,46.65,487.0
Burundi,BJ,Bujumbura|Murukaramu,Bujumbura,64390.0,-3.316666666666667,29.316666666666666,783.0
Burundi,BM,Bujumbura,Bujumbura Melchior Ndadaye INTL AP,64392.0,-3.32,29.32,783.0
Burundi,CI,Cibitoke,Cibitoke,64398.0,-2.88,29.12,941.0
Burundi,GI,Gitega,Gitega,64391.0,-3.423333,29.923333,1645.0
Burundi,KY,Kayanza,Kayanza,64399.0,-2.93,29.61,1935.0
Burundi,MU,Muramvya,Muramvya,64395.0,-3.26,29.61,1893.0
Burundi,MY,Muhinga|Nyabihanga,Muhinga,64397.0,-2.8333333333333335,30.333333333333332,1755.0
Burundi,RT,Rutana,Rutana,64396.0,-4.0,30.1,1308.0
Burundi,RY,Ruyigi,Ruyigi,64393.0,-3.47,30.25,1592.0
Bangladesh,32,Dhaka|Dacca|Solpur,Kurmitola/Zia Intl,41922.0,23.85,90.4,9.0
Bangladesh,32,Dhaka|Dacca|Tejteri Bāzār,Tejgaon/Military,41923.0,23.766666666666666,90.38333333333334,8.0
Bangladesh,32,Faridpur|Guha Lakshmipur,Faridpur,41916.0,23.617,89.85,12.0
Bangladesh,32,Farodpur|Farīdpur,Farodpur,41929.0,23.6,89.85,8.0
Bangladesh,32,Jamalpur|Jamālpur,Jamalpur,41884.0,24.933333333333334,89.95,18.0
Bangladesh,32,Joydevpur|Chhota Deora,Joydevpur,41921.0,23.983333333333334,90.41666666666667,12.0
Bangladesh,32,Madaripur|Ghātmājhi,Madaripur,41928.0,23.167,90.183,16.0
Bangladesh,32,Madaripur|Ghātmājhi,Madaripur,41939.0,23.166666666666668,90.18333333333334,7.0
Bangladesh,32,Mymensingh|Baera Bhāluka,Mymensingh,41886.0,24.716666666666665,90.43333333333334,18.0
Bangladesh,32,Tangail|Tāngāil,Tangail,41909.0,24.25,89.93333333333334,17.0
Bangladesh,46,Chuadanga|Teyepur,Chuadanga,41926.0,23.65,88.81666666666666,10.0
Bangladesh,46,Jessore|Mādghopa,Jessore AP,41936.0,23.183333333333334,89.16666666666667,6.0
Bangladesh,46,Khulna|Jhārbhānga,Khulna,41947.0,22.783333333333335,89.53333333333333,3.0
Bangladesh,46,Khulna|Sulpur,Khulna,41931.0,22.85,89.567,10.0
Bangladesh,46,Mongla|Chālna,Mongla,41958.0,22.6,89.5,8.0
Bangladesh,46,Satkhira|Palāspol,Satkhira,41946.0,22.716666666666665,89.08333333333333,4.0
Bangladesh,-,Barisal|Gauasar,Barisal,41932.0,22.717,90.367,12.0
Bangladesh,-,Barisal|Kāgāsura,Barisal,41950.0,22.75,90.36666666666666,3.0
Bangladesh,-,Bhola,Bhola,41937.0,22.683,90.65,15.0
Bangladesh,-,Bhola,Bhola,41951.0,22.683333333333334,90.65,4.0
Bangladesh,-,Chandpur|Dāsdi,Chandpur,41941.0,23.266666666666666,90.7,6.0
Bangladesh,-,Comilla|Unāisār,Comilla,41933.0,23.433333333333334,91.18333333333334,9.0
Bangladesh,-,Feni|Maheshpur,Feni,41935.0,23.0,91.4,9.0
Bangladesh,-,Feni|Ruhitia,Feni,41943.0,23.033333333333335,91.41666666666667,6.0
Bangladesh,-,Hatia|Nalchira,Hatia,41963.0,22.433333333333334,91.1,2.0
Bangladesh,-,Maijdicourt,Maijdicourt,41953.0,22.866666666666667,91.1,5.0
Bangladesh,-,"Saint Martin, Cox's Bazar","Saint Martin, Cox's Bazar",41955.0,20.602777777777778,92.32833333333333,7.0
Bangladesh,-,Srimangal,Srimangal,41915.0,24.3,91.73333333333333,22.0
Bangladesh,-,Sylhet|Dhopāgul,Sylhet AP,41890.0,24.966666666666665,91.88333333333334,15.2
Bangladesh,-,Weliabad,Weliabad,42010.0,20.86,92.3,6.0
Bangladesh,BAR,Chillimpur|Tulatuli,Chillimpur,41944.0,23.240833333333335,92.06416666666667,53.0
Bangladesh,BAR,Chittagong|Jhautala,Ambagan,41977.0,22.35,91.81666666666666,33.0
Bangladesh,BAR,Chittagong|Jhautala,Chittagong,41940.0,22.35,91.817,29.0
Bangladesh,BAR,Chittagong|Patenga|M.a. Hannan Intl|Kāmāl Mahājaner Hāt,Shah Amanat International AP|MA Hannan International AP|Chittagong AFB,41978.0,22.266666666666666,91.81666666666666,4.0
Bangladesh,BAR,Cox's Bazar|Malaher Para,Cox's Bazar,41992.0,21.433333333333334,91.93333333333334,2.0
Bangladesh,BAR,Kaptai,Kaptai,41967.0,22.483333333333334,92.23333333333333,26.0
Bangladesh,BAR,Kutubdia|Baraghop,Kutubdia,41989.0,21.816666666666666,91.85,2.0
Bangladesh,BAR,Rangamati|Dighalchari,Rangamati,41966.0,22.533333333333335,92.2,63.0
Bangladesh,BAR,Sandvip|Sandwīp,Sandvip,41945.0,22.483,91.417,0.0
Bangladesh,BAR,Sandwip|Sandwīp,Sandwip,41964.0,22.483333333333334,91.43333333333334,2.0
Bangladesh,BAR,Sitakundu|Bārabkunda Bara,Sitakundu,41965.0,22.583333333333332,91.7,6.0
Bangladesh,BAR,Teknaf|Purān Paliānpāra,Teknaf,41998.0,20.866666666666667,92.3,5.0
Bangladesh,C,"Nikli, Kishorganj","Nikli, Kishorganj",41902.0,24.325277777777778,90.93916666666667,7.0
Bangladesh,CHI,Borhanuddin|Kutba,Borhanuddin,41938.0,23.013055555555557,89.8225,8.0
Bangladesh,CHI,Khepupara|Kalāpāra,Khepupara,41961.0,21.983,90.233,10.0
Bangladesh,CHI,Khepupara|Kalāpāra,Khepupara,41984.0,21.983333333333334,90.23333333333333,2.0
Bangladesh,CHI,Patuakhali|Pasarbania,Patuakhali,41960.0,22.333333333333332,90.33333333333333,2.0
Bangladesh,D,"Kumarkhali, Kushtia","Kumarkhali, Kushtia",41927.0,23.52,89.1463888888889,12.0
Bangladesh,E,"Badalgachhi, Naogaon","Badalgachhi, Naogaon",41881.0,24.580555555555556,88.53666666666666,14.0
Bangladesh,E,"Tarash, Sirajgani","Tarash, Sirajgani",41897.0,24.259444444444444,89.22916666666667,7.0
Bangladesh,F,"Dimla, Nilphamari","Dimla, Nilphamari",41851.0,26.085833333333333,88.5575,51.0
Bangladesh,F,"Tetulia, Panchagor","Tetulia, Panchagor",41850.0,26.344166666666666,88.60722222222222,62.0
Bangladesh,H,Netrokona Sadar,Netrokona Sadar,41888.0,24.886111111111113,90.72916666666667,7.0
Bangladesh,RAJ,Bogra|Chak Brindāban,Bogra,41883.0,24.85,89.36666666666666,18.0
Bangladesh,RAJ,Dinajpur|Baltair,Dinajpur,41863.0,25.65,88.68333333333334,36.0
Bangladesh,RAJ,Ishurdi|Bīl Bāmni,Ishurdi,41855.0,24.15,89.033,13.7
Bangladesh,RAJ,Ishurdi|Iswardi,Ishurdi,41907.0,24.133333333333333,89.05,13.0
Bangladesh,RAJ,Lalmonirhat|Kamjiban,Lalmonirhat,41862.0,25.8877778,89.4297222,30.0
Bangladesh,RAJ,Rajshahi|Sucharan,Rajshahi,41895.0,24.366666666666667,88.7,17.0
Bangladesh,RAJ,Rajshahi|Terakāna,Rajshahi,41856.0,25.798333333333332,89.545,35.0
Bangladesh,RAJ,Rangpur|Deodoba,Rangpur,41859.0,25.733333333333334,89.23333333333333,33.0
Bangladesh,RAJ,Saidpur|Bārāisālpāra,Saidpur,41858.0,25.75,88.91666666666667,39.0
Bangladesh,RAJ,Serajgonj|Sirajganj,Serajgonj,41898.0,24.45,89.7,13.0
Bangladesh,RAJ,Sirajganj,Sirajganj,41860.0,24.45,89.7,18.0
Bangladesh,RAJ,Thakurgaon|Makurgaon|Kristopur,Thakurgaon,41852.0,26.016666666666666,88.4,53.0
Bangladesh,RK,Teknaf|Jinjira Dakhinpāra,Teknaf,41980.0,22.19972222222222,92.21666666666667,30.0
Bangladesh,SYL,Sylhet,Osmani,41891.0,24.9,91.88333333333334,34.0
Bangladesh,SYL,Sylhet,Sylhet,41900.0,24.9,91.883,15.0
Bulgaria,02,Achtopol|Brodilovo,Achtopol,15661.0,42.1,27.85,18.0
Bulgaria,2,Burgas|Kvartal Kraymorie,Burgas AP,15655.0,42.5,27.483333333333334,27.0
Bulgaria,02,Elhovo|Elkhovo,Elhovo,15642.0,42.18333333333333,26.566666666666666,138.0
Bulgaria,02,Karnobat,Karnobat,15646.0,42.65,26.983,225.0
Bulgaria,02,Primorsko|Duni,Primorsko,15662.0,42.2833,27.75,3.0
Bulgaria,02,Sliven|Sotirya,Sliven,15640.0,42.666666666666664,26.333333333333332,257.0
Bulgaria,02,Yambol|Kukorevo,Yambol,15636.0,42.483,26.517,146.0
Bulgaria,03,Shabla,Shabla,15561.0,43.53333333333333,28.533333333333335,27.0
Bulgaria,03,Shumen|Divdyadovo,Shumen,15544.0,43.267,26.933,242.0
Bulgaria,3,Varna|Sv. Konstantin i Elena,Varna MET OBS,15552.0,43.2,27.95,40.0
Bulgaria,08,Kaliakpa|Bŭlgarevo,Kaliakpa,15562.0,43.36666666666667,28.466666666666665,63.0
Bulgaria,11,Lovetch|Bakhovitsa,Lovetch,15525.0,43.15,24.7,220.0
Bulgaria,11,Pleven|Bukovlŭk,Pleven,15526.0,43.4167,24.6,115.0
Bulgaria,11,Pleven|Kŭshin,Pleven,15528.0,43.4,24.6,156.0
Bulgaria,11,Svichtov|Svishtov,Svichtov,15533.0,43.61666666666667,25.35,24.0
Bulgaria,11,Veliko Tarnovo|Arbanasi,Veliko Tarnovo,15530.0,43.083333333333336,25.65,217.0
Bulgaria,12,Gramada,Gramada,15503.0,43.833,22.667,256.0
Bulgaria,12,Lom,Lom,15511.0,43.81666666666667,23.25,32.0
Bulgaria,12,Montana|Nikolovo,Montana,15507.0,43.416666666666664,23.216666666666665,202.0
Bulgaria,12,Oryahovo|Selanovtsi,Oryahovo,15514.0,43.68333333333333,23.966666666666665,29.0
Bulgaria,12,Vidin|Novoseltsi,Vidin,15502.0,43.983333333333334,22.85,31.0
Bulgaria,12,Vratza|Bistrets,Vratza,15505.0,43.2,23.533333333333335,308.0
Bulgaria,16,Botev Vrah (top/sommet)|Karlovo,Botev Vrah (top/sommet),15627.0,42.666666666666664,24.833333333333332,2384.0
Bulgaria,16,Ivailo|Ivaylo,Ivailo,15628.0,42.21666666666667,24.333333333333332,213.0
Bulgaria,16,Plovdiv|Krumovo,Plovdiv,15626.0,42.06666666666667,24.85,154.0
Bulgaria,16,Plovdiv|Ostra Mogila,Plovdiv,15625.0,42.13333333333333,24.75,179.0
Bulgaria,17,Razgrad|Lipnik,Razgrad,15549.0,43.56666666666667,26.5,346.0
Bulgaria,17,Ruse|Rousse|Basarbovo,Ruse MET OBS,15535.0,43.85,25.95,37.0
Bulgaria,17,Samouil|Samuil,Samouil,15546.0,43.517,26.75,433.0
Bulgaria,17,Silistra|Kalipetrovo,Silistra,15550.0,44.11666666666667,27.266666666666666,16.0
Bulgaria,21,Rojen|Narechenski Bani,Rojen,15726.0,41.88333333333333,24.733333333333334,1754.0
Bulgaria,21,Snejanka|Pamporovo,Summit,15725.0,41.666666666666664,24.683333333333334,1923.0
Bulgaria,22,Cherni|Kladnitsa,Summit,15613.0,42.583333333333336,23.266666666666666,2286.0
Bulgaria,22,Sofia|German|Busmantsi,Sofia MET OBS,15614.0,42.65,23.383333333333333,595.0
Bulgaria,23,Dragoman,Dragoman,15605.0,42.93333333333333,22.933333333333334,714.0
Bulgaria,23,Kustendil|Bagrentsi,Kustendil,15601.0,42.266666666666666,22.766666666666666,522.0
Bulgaria,23,Mourgash Mountain|Churek,Mourgash Mountain,15600.0,42.833333333333336,23.666666666666668,1687.0
Bulgaria,23,Mussala|Borovets,Summit,15615.0,42.18333333333333,23.583333333333332,2925.0
Bulgaria,23,Sandanski,Sandanski,15712.0,41.55,23.266666666666666,203.0
Bulgaria,26,Chirpan,Chirpan,15635.0,42.2,25.333333333333332,173.0
Bulgaria,26,Kazanluk|Kazanlak,Kazanluk,15631.0,42.617,25.4,387.0
Bulgaria,26,Kurdjali|Nevestino,Kardzali,15730.0,41.65,25.383333333333333,330.0
Bulgaria,26,Svilengrad,Svilengrad,15741.0,41.766666666666666,26.2,54.0
Bulgaria,26,Svilengrad,Svilengrad,15772.0,41.76,26.2,55.0
Bulgaria,-,Bŭlgarevo,Bŭlgarevo,15556.0,43.383,28.383,83.0
Bulgaria,ME,Novo Selo,Novo Selo,15501.0,44.166666666666664,22.8,36.0
Bulgaria,,Name And Loc Unk,Name And Loc Unk,15630.0,,,0.0
Bulgaria,,Name And Loc Unkn,Name And Loc Unkn,15510.0,,,0.0
Bulgaria,,Name And Loc Unkn,Name And Loc Unkn,15534.0,,,0.0
Bulgaria,,Name And Loc Unkn,Name And Loc Unkn,15563.0,,,0.0
Bulgaria,,Name And Loc Unkn,Name And Loc Unkn,15622.0,,,0.0
Bulgaria,,Name And Loc Unkn,Name And Loc Unkn,15645.0,,,0.0
Bulgaria,,Name And Loc Unkn,Name And Loc Unkn,15734.0,,,0.0
Bulgaria,,Name And Loc Unkn,Name And Loc Unkn,15736.0,,,0.0
Bulgaria,,USAF Bogus Bulgaria Site,USAF Bogus Bulgaria Site,15520.0,,,
Bulgaria,,USAF Bogus Bulgaria Site,USAF Bogus Bulgaria Site,15538.0,,,
Bulgaria,,USAF Bogus Bulgaria Site,USAF Bogus Bulgaria Site,15575.0,,,
Bulgaria,,USAF Bogus Bulgaria Site,USAF Bogus Bulgaria Site,15611.0,,,
Bulgaria,,USAF Bogus Bulgaria Site,USAF Bogus Bulgaria Site,15618.0,,,
Bulgaria,,USAF Bogus Bulgaria Site,USAF Bogus Bulgaria Site,15619.0,,,
Bulgaria,,USAF Bogus Bulgaria Site,USAF Bogus Bulgaria Site,15637.0,,,
Bulgaria,,USAF Bogus Bulgaria Site,USAF Bogus Bulgaria Site,15650.0,,,
Bulgaria,,USAF Bogus Bulgaria Site,USAF Bogus Bulgaria Site,15718.0,,,
Bulgaria,,USAF Bogus Bulgaria Site,USAF Bogus Bulgaria Site,15729.0,,,
Bahrain,15,Bahrain|Qalālī,Bahrain Intl AP,41150.0,26.266666666666666,50.65,2.0
Bahrain,-,Formula 1|Al Wasmīyah,Formula 1,41155.0,26.016666666666666,50.5,5.0
Bahrain,-,Hawar Island|An Nuqay‘ah,Hawar Island,41152.0,25.716666666666665,50.78333333333333,2.0
Bahrain,-,Jabal Al Dukhan|Umm Jidr,Jabal Al Dukhan,41154.0,26.033333333333335,50.53333333333333,135.0
Bahrain,-,King Fahad Causeway|Al ‘Azīzīyah,King Fahad Causeway,41153.0,26.185277777777777,50.33083333333333,6.0
Bahrain,-,Ras Al Bar|Jusayrah,Ras Al Bar,41156.0,25.85,50.55,2.0
Bahrain,MUH,Bahrain|Qalālī,Muharraq Intl AP,41150.0,26.266666666666666,50.65,2.0
Bahrain,NOR,Jarim|Ad Dayr,Jarim,41151.0,26.483333333333334,50.583333333333336,3.0
Bhutan,33,Tsampa,Tsampa,44517.0,27.86,90.6588888888889,3694.0
Central African Republic,BBA,N'Dele|Ndélé,N'Dele,64654.0,8.4,20.65,510.0
Central African Republic,BKO,Alindao|Boroudou,Alindao,64662.0,5.05,21.2,447.0
Central African Republic,HKO,Bria,Bria,64655.0,6.533333333333333,21.983333333333334,583.0
Central African Republic,HKO,Yalinga|Yalinda,Yalinga,64661.0,6.5,23.266666666666666,601.0
Central African Republic,HMB,Obo|Nagpanga,Obo,64659.0,5.4,26.5,650.0
Central African Republic,MKD,Berberati|Berbérati,Berberati,64600.0,4.25,15.8,582.0
Central African Republic,MP,Bangui|Kolongo,Mpoko|M'Poko/Military,64650.0,4.4,18.516666666666666,365.0
Central African Republic,MP,Bossembele|Bouani,Bossembele,64605.0,5.266666666666667,17.633333333333333,673.0
Central African Republic,NMM,Bouar|Goumbou,Bouar,64601.0,5.966666666666667,15.633333333333333,1019.0
Central African Republic,OR,Bangassou|Tokoyo,Bangassou,64656.0,4.733333333333333,22.833333333333332,499.0
Central African Republic,OUH,Bossangoa|Dam,Bossangoa,64610.0,6.483333333333333,17.433333333333334,464.0
Central African Republic,OUK,Bambari|Atongo,Bambari AP,64660.0,5.85,20.65,474.0
Central African Republic,VAK,Birao,Birao,64658.0,10.283333333333333,22.783333333333335,463.0
China,02,Sơn Ðen|He-Kou,Sơn Ðen,56989.0,22.5,103.95,154.0
China,,Arzak,Arzak|Ar-Tux,51705.0,39.666,76.166,1282.0
China,,Chongqing (57516-0),Chongqing (57516-0),57516.0,29.5833333333,106.4666666667,245.0
China,,Guiyang (57816-0),Guiyang (57816-0),57816.0,26.5833333333,106.7333333333,1226.0
China,,Gushi,Gushi,58208.0,32.25,115.63,36.8
China,,Huili,Huili,56671.0,26.46,102.32,1811.4
China,,Karmar,Karmar,52744.0,37.5,98.8,3979.0
China,,Lincang,Lincang,56951.0,23.88,100.12,1636.1
China,,Szarvas,Szarvas,56312.0,46.86972,20.5275,85.0
China,,Tongliao,Tongliao,54135.0,43.66,122.35,173.9
China,,Xingxingxia,Xingxingxia,52313.0,41.783,95.133,1816.0
China,-,Aizhou|Bei-Jian Island,Aizhou,59683.0,21.817,113.95,0.0
China,-,Beilong|Dong-Gua Island,Beilong,58764.0,27.633,121.05,0.0
China,-,Chung-liu-ts’un|Tung-Yin Island|Zhongliucun,Chung-liu-ts’un,58864.0,26.367,120.467,0.0
China,-,Da’aoli|Dachen Island,Da’aoli,58666.0,28.45,121.88333333333334,84.0
China,-,Da’aoli|Hai-Men,Da’aoli,58662.0,28.683,122.133,
China,-,Dajing|Xi-Cun,Dajing,59745.0,20.4,109.933,15.0
China,-,Damaidao|Flashing Light,Damaidao,54952.0,35.9667,120.4833,0.0
China,-,Dong’ao|Approximate Location,Dong’ao,59327.0,23.167,117.167,0.0
China,-,Dongkeng|Zhi-Zhi Island,Dongkeng,58478.0,30.233,122.567,0.0
China,-,Dongmen|Shipu,Dongmen,58569.0,29.2,121.95,13.0
China,-,Gulei|Xiong-Di Island,Gulei,59326.0,23.533,117.683,0.0
China,-,Haidao|Xi-Yang Island,Haidao,58854.0,26.517,120.067,0.0
China,-,Hsi-ts’un|Chin-Men|Xicun,Hsi-ts’un,59135.0,24.433,118.433,9.0
China,-,Huangsha’ao|Shengsi|Caiyuan,Caiyuanzhen,58472.0,30.733333333333334,122.45,16.0
China,-,Jieyang|Xilong|Changxiacun|Chaozhou,Jieyang Chaoshan Intl AP,59316.0,23.35,116.66666666666667,4.0
China,-,Jinhe|Chin Ho (chin Nang)|Daruhu,Jinhe,59755.0,20.583,110.417,7.0
China,-,Lenan|Da-Zhou Island,Lenan,59955.0,18.667,110.467,0.0
China,-,Longxudao|Chengshanwei,Longxudao / Cape,54776.0,37.4,122.68333333333334,17.0
China,-,Mazu,Mazu,58849.0,26.166666666666668,119.93333333333334,0.0
China,-,Meixia|Lin-Gao Jiao,Meixia,59748.0,20.033,109.667,0.0
China,-,Moored Vessel,Moored Vessel 54643,54643.0,38.9667,119.95,6.0
China,-,Moored Vessel,Moored Vessel 54646,54646.0,38.35,119.6833,6.0
China,-,Nanchangshan|Chang Island,Nanchangshan,54751.0,37.93333333333333,120.71666666666667,43.0
China,-,Nanchangshan|Tuoji Island,Nanchangshan,54656.0,38.1667,120.7833,0.0
China,-,Nanji Shan,Nanji Shan,58765.0,27.4667,121.05,10.0
China,-,Nanshu (=469020),Nanshu (=469020),59997.0,10.383333333333333,114.36666666666666,0.0
China,-,Pi-t’ou|Pengjia Yu (=466950)|Bitou,Pi-t’ou,58974.0,25.633333333333333,122.06666666666666,
China,-,Qikou|Qi-Kou,Qikou,54625.0,38.617,117.55,7.0
China,-,Qimudao|Longkou,Qimudao / Cape,54743.0,37.683,120.217,0.0
China,-,Sanhu Island,Sanhu Island,59985.0,16.533333333333335,111.61666666666666,5.2
China,-,Shangen,Shangen,58659.0,28.0167,120.6667,10.0
China,-,Shengshan|Lang-Gang Island|Nanxiang,Shengshan,58476.0,30.433,122.917,0.0
China,-,Shengshan|Sheng Shang|Dayu Wan,Shengshan,58473.0,30.7167,122.8167,0.0
China,-,Taishan,Taishan,58853.0,27.0,120.7,0.0
China,-,Xinggangzhen|Da-San-Shan Island,Xinggangzhen,54663.0,38.883,121.817,0.0
China,-,Xisha Island,Xisha Island,59981.0,16.833333333333332,112.33333333333333,5.0
China,-,Yanchanggou|Haiyang Island,Yanchanggou,54587.0,39.05,123.21666666666667,0.0
China,-,Yangjiang|Naluo,Yangjiang,59663.0,21.833333333333332,111.96666666666667,12.0
China,-,Yantai|Zhifu Qu,Yantai,54763.0,37.55,121.4,0.0
China,-,Yongshujiao,Yongshujiao,59995.0,9.533333333333333,112.88333333333334,6.0
China,-,Zhelang|Approximate Location,Zhelang,59505.0,22.5,115.5,0.0
China,-,Zhongzao|Ta-Yu-Shan|Zao’ao,Zhongzao,58852.0,26.917,120.383,0.0
China,-,Zhougezhuang|Qian-Li Island,Zhougezhuang,54868.0,36.267,121.383,0.0
China,AH,Beihaibinguan|Huang Shan,Beihaibinguan / Mountain,58437.0,30.133333333333333,118.15,1430.0
China,AH,Bengbu,Bengbu,58221.0,32.85,117.3,30.0
China,AH,Bozhou,Bozhou MET,58102.0,33.79138888888889,115.73527777777778,36.0
China,AH,Chalu|Tai-Hu|Taihu,Chalu,58414.0,30.467,116.3,48.0
China,AH,Chuzhou,Chuzhou,58236.0,32.317,118.333,26.0
China,AH,Chuzhou|Chu-Xian,Chuzhou,58234.0,32.333,118.3,5.0
China,AH,Dengtiqiao|She-Xian,Dengtiqiao,58532.0,29.883,118.433,111.0
China,AH,Feidong|Kanji,Feidong AB|Shih-Tang-Jiao AB [old name]|Kanji,58323.0,31.912,117.665,57.0
China,AH,Fuyang,Fuyang MET,58203.0,32.911,115.815,32.0
China,AH,Gaoqiaozhen|Kong-Cheng,Gaoqiaozhen,58327.0,31.033,117.017,27.0
China,AH,Hefei|Luogangzhen,Hefei Luogang AP (Closed 2013),58321.0,31.95,117.05,49.8
China,AH,Helixi,Helixi,58436.0,30.633,118.967,48.0
China,AH,Hengshan,Hengshan MET,58314.0,31.4,116.33333333333333,71.0
China,AH,Huancheng,Huancheng,58326.0,31.6,117.833,21.0
China,AH,Huangguzha|Huang Gu-Jia [old name],Huangguzha MET,58328.0,31.18,117.55,6.0
China,AH,Huangshan|Tunxi,Huangshan MET|Tunxi MET,58531.0,29.714,118.284,130.0
China,AH,Jingde|Jingyang|Jing-De,Jingde MET|Jingyang,58438.0,30.299,118.532,198.0
China,AH,Mingguang|Jia-Shan,Jia-Shan,58231.0,32.783,118.0,23.0
China,AH,Sanhezhen|Sanhe|Shan-He,Sanhezhen,58324.0,31.52,117.25,5.0
China,AH,Shengqiaozhen|Shengjiaqiao|Sheng-Jia-Qiao,Shengqiaozhen,58325.0,31.383,117.483,8.0
China,AH,Shouxian|Shouchun,Shouxian MET|Shouyang,58215.0,32.557,116.782,24.0
China,AH,Wuhu|Jiaoji|Dashantou,Wuhu County MET,58338.0,31.116666666666667,118.58333333333333,26.0
China,AH,Wuhu|Jinghu|Jiaoji|Wu-Hu,Wuhu MET,58334.0,31.378,118.413,9.0
China,AH,Xianyuanyichang,Xianyuanyichang,58436.0,30.6,118.95,89.0
China,AH,Xiaokeng,Xiaokeng,58424.0,30.616666666666667,116.96666666666667,27.0
China,AH,Yingshang|Jingzhuang|Ying-Shang,Yingshang MET|Jingzhuang,58211.0,32.645,116.236,20.0
China,AH,Yudian|Tang-Shan,Yudian,58015.0,34.4167,116.3333,49.0
China,AMU,Oupu|Cernjaevo,Oupu,31371.0,52.78333333333333,126.0,208.0
China,BE,Aarwangen|Wynau|Wolfwil,Aarwangen,6643.0,47.255,7.7875,422.0
China,BJ,Beijing|Bei-jing|Peking|Peping|Sijiqing,Beijing Capital Intl AP|Pei Ching Capital AP,54511.0,39.93333333333333,116.28333333333333,54.0
China,BJ,Dabailou|Beijing|Bei-jing|Peking|Peping,Nan-Yuan,54512.0,39.783,116.383,32.0
China,BJ,Yanqing,Yanqing,54406.0,40.467,115.933,476.0
China,BJ,Zhangjiawan|Beijing|Bei-jing|Peking|Peping,Tong-Xian,54513.0,39.817,116.7,15.0
China,CHA,Qingshi|Ching-Zhi,Qingshi,54378.0,41.367,126.517,290.0
China,CHA,Sindŏng-ni|Shenglicun,Sindŏng-ni,54374.0,41.8,126.88333333333334,385.0
China,CQ,Bashan|Jan-Chia-Pa,Bashan,57238.0,32.1,108.483,1243.0
China,CQ,Chejiaba,Chejiaba,57347.0,31.1,109.1,1116.0
China,CQ,Dadukou|Chongqing|Chong-Qing|Chungking|Chunking,Dadukou,57515.0,29.517,106.483,351.0
China,CQ,Dingshi|Chang-Pu-Qi,Dingshi,57632.0,28.783,108.55,624.0
China,CQ,Fuling|Fou-Ling,Fuling,57522.0,29.7167,107.4,151.0
China,CQ,Guanba|Liangshan China Aab,Guanba,74934.0,30.583,107.833,485.0
China,CQ,Hanjia,Hanjia,57537.0,29.3,108.167,91.0
China,CQ,Hanjia,Hanjia,57537.0,29.25,108.167,315.0
China,CQ,Liangshan|Liangping,Liangshan,57426.0,30.683333333333334,107.8,461.0
China,CQ,Mapaochang|Da-Zu,Mapaochang,57506.0,29.633,105.767,365.0
China,CQ,Mugenpu|Xiang-Gou,Mugenpu,57525.0,29.567,107.567,1024.0
China,CQ,Shahe|Wanxian,Shahe,57432.0,30.8,108.35,460.0
China,CQ,Wudong,Wudong,57428.0,30.217,107.417,360.0
China,CQ,Wuxi|Wu-Xi,Wuxi,57345.0,31.4,109.633,384.0
China,CQ,Xiaohe|Jinfo Shan,Xiaohe / Mountain,57622.0,28.95,107.15,1953.0
China,CQ,Yong’an|Fengjie,Yong’an,57348.0,31.016666666666666,109.53333333333333,424.0
China,CQ,Zhongduo,Zhongduo,57633.0,28.833333333333332,108.76666666666667,664.0
China,CQ,Zhongzhou|Zhong-Xian,Zhongzhou,57437.0,30.3,108.033,210.0
China,FJ,Anhou|Li-Men,Anhou,58747.0,27.117,119.3,914.0
China,FJ,Aoyang|Shou-Ning,Aoyang,58745.0,27.467,119.483,832.0
China,FJ,Banzhong Shezuxiang|Fu An,Banzhong Shezuxiang,58749.0,27.1,119.633,28.0
China,FJ,Changmen|Shuang-Keng|Wenjing,Changmen,58838.0,26.05,118.417,903.0
China,FJ,Cuijiang|Ning-Hua,Cuijiang,58815.0,26.267,116.65,327.0
China,FJ,Dapingkou,Dapingkou,58933.0,25.867,118.917,108.0
China,FJ,Dikengyang|Sanming,Dikengyang,58820.0,26.1833,117.6167,374.0
China,FJ,Dongjie|Changting,Dongjie,58911.0,25.85,116.36666666666666,318.0
China,FJ,Duizitou,Duizitou,58723.0,27.75,118.0,244.0
China,FJ,Dunhou,Dunhou,58850.0,26.933,120.067,276.0
China,FJ,Fengcheng|Lian-Jiang,Fengcheng,58848.0,26.2,119.533,12.0
China,FJ,Fenggang|Sha-Xian,Fenggang,58826.0,26.4,117.783,131.0
China,FJ,Fulin|Zhangzhou,Fulin,59126.0,24.6333,117.65,50.0
China,FJ,Fuzhou|Foochow|Fuchow|Fuh-chau|Fuh-Chow|Hock Chew|Hokchew|Guxi|Hongshanzhen,Fuzhou City MET,58847.0,26.083333333333332,119.28333333333333,81.0
China,FJ,Gaoxia|Jin-Jiang,Gaoxia,59133.0,24.8,118.5833,10.0
China,FJ,Gubei|Da-Xi,Gubei,59127.0,24.133,117.65,142.0
China,FJ,Honglai|Hung-Lai,Honglai,58938.0,25.083,118.517,21.0
China,FJ,Houbihu|Nan-Jing,Houbihu,59124.0,24.517,117.35,32.0
China,FJ,Huyang|Shanghang|Huangkeng,Huyang,58918.0,25.0667,116.35,267.0
China,FJ,Jian’ou|Jian'Ou,Jian’ou,58737.0,27.05,118.3167,100.0
China,FJ,Jiekeng|Approximate Location,Jiekeng,58735.0,27.5,118.5,255.0
China,FJ,Jiji’an|Jiuxian Shan,Jiji’an,58931.0,25.716666666666665,118.1,1335.0
China,FJ,Keling|Fuding,Keling,58754.0,27.333333333333332,120.2,45.0
China,FJ,Liangcuo|Jian-Yang,Liangcuo,58734.0,27.583,118.333,531.0
China,FJ,Longyan,Longyan,58927.0,25.1,117.0167,357.0
China,FJ,Maoping|Yong'An,Maoping,58921.0,25.966666666666665,117.4,259.0
China,FJ,Nanping|Xiyu,Nanping,58834.0,26.633333333333333,118.15,209.0
China,FJ,Pucheng,Pucheng,58731.0,27.916666666666668,118.53333333333333,232.0
China,FJ,Qibu|Luoyuan,Qibu,58846.0,26.5167,119.5333,15.0
China,FJ,Qingchengjiedao|Zhang Ping|Jingchen,Qingchengjiedao,58926.0,25.272222222222222,117.42805555555556,238.5
China,FJ,Qingchengjiedao|Zhang-Ping|Jingchen,Qingchengjiedao,58928.0,25.3,117.4,235.0
China,FJ,Shancheng|Tai-Ning,Shancheng,58821.0,26.9,117.167,315.0
China,FJ,Shanghu|Name Unknown (onc),Shanghu,58932.0,25.783,118.383,833.0
China,FJ,Shanglou|Pingtan,Shanglou,58944.0,25.516666666666666,119.78333333333333,15.0
China,FJ,Shanmei|Yong-Chun,Shanmei,58934.0,25.333,118.3,143.0
China,FJ,Shantang|Dai-Tou,Shantang,58947.0,25.267,119.2,12.0
China,FJ,Shaowu,Shaowu,58725.0,27.333333333333332,117.46666666666667,303.0
China,FJ,Wuyishan|Zhenghe,Wuyishan,58730.0,27.766666666666666,118.03333333333333,221.0
China,FJ,Xiamen|Hsiamen|Amoy,Xiamen Gaoqi Intl AP,59134.0,24.483333333333334,118.08333333333333,139.0
China,FJ,Xiayang|Xia-Yang,Xiayang,58831.0,26.783,118.0,248.0
China,FJ,Xingxi|Xiong Mountain,Xingxi,58736.0,27.383,118.85,485.0
China,FJ,Yangkeng|Chianelo,Yangkeng,58140.0,26.767,117.367,700.0
China,FJ,Yangkeng|Chianelo,Yangkeng,58825.0,26.767,117.367,700.0
China,FJ,Youxi Chengguanzhen|You-Xi,Youxi Chengguanzhen,58837.0,26.167,118.183,175.0
China,FJ,Zhangchongshan|Approximate Location,Zhangchongshan,58732.0,27.833,118.5,524.0
China,FJ,Zhenghua’nan,Zhenghua’nan,58941.0,25.933,119.567,8.0
China,GD,Bangang|Tai-Shan|Qiaolin,Bangang,59478.0,22.2667,112.7833,9.0
China,GD,Baowei|Luoding,Baowei,59462.0,22.7167,111.55,83.0
China,GD,Chengnei,Chengnei,59501.0,22.783333333333335,115.36666666666666,8.0
China,GD,Dalingang|Guangzhou|Guang-zhou|Canton|Huangcun,Dalingang / East,59288.0,23.133,113.4,12.0
China,GD,Daping,Daping,59309.0,23.183,115.85,86.0
China,GD,Diaoshu|Zhan-Jiang,Diaoshu,59657.0,21.217,110.317,37.0
China,GD,Donghu|Guang-zhou|Canton,Guangzhou Baiyun Intl AP (2004- ) | Pai Yuen AP (2004- ),59287.0,23.216666666666665,113.48333333333333,73.0
China,GD,Encheng|En-Ping,Encheng,59477.0,22.183,112.317,17.0
China,GD,Fenghuanggang|Qing Yuan|Changtian,Fenghuanggang,59280.0,23.716666666666665,113.08333333333333,79.2
China,GD,Fuxing|Xing-Ning,Fuxing,59109.0,24.133,115.717,93.0
China,GD,Guangzhou|Qiangdong,Guangzhou,59287.0,23.216666666666665,113.48333333333333,71.0
China,GD,Guliao|Fou-Tou,Guliao,59648.0,21.1,109.717,18.0
China,GD,Henan’an|Hui-Yang,Henan’an,59298.0,23.0833,114.4167,14.0
China,GD,Heyuan|Xudong,Heyuan,59293.0,23.8,114.73333333333333,49.0
China,GD,Junxian|Lu-Bu,Junxian,59277.0,23.167,112.3,25.0
China,GD,Leigongmu|Approximate Location,Leigongmu,59311.0,23.767,116.017,663.0
China,GD,Liangkou|Liang-Kou (?),Liangkou,59283.0,23.717,113.717,70.0
China,GD,Lianzhou|Lian Xian|Chengbei,Lianzhou,59072.0,24.8,112.36666666666666,113.0
China,GD,Liuxie|Xinyi,Liuxie,59456.0,22.35,110.93333333333334,110.0
China,GD,Luoyang|Bo-Luo,Luoyang,59297.0,23.167,114.283,12.0
China,GD,Mamaozi|Tian-Cheng|Diancheng,Mamaozi,59664.0,21.5167,111.3,12.0
China,GD,Mayue,Mayue,59273.0,23.667,112.867,26.0
China,GD,Meizhou|Mei Xian,Meizhou,59117.0,24.283333333333335,116.06666666666666,60.0
China,GD,Qiashui|Xia-Shui-Xu,Qiashui,59077.0,24.083,112.333,110.0
China,GD,Sancun|He-Qing,Sancun,59473.0,22.85,112.933,20.0
China,GD,Shangchuan Island,Shangchuan Island,59673.0,21.733333333333334,112.76666666666667,0.0
China,GD,Shanjiao,Shanjiao,59468.0,22.133,111.467,78.0
China,GD,Shaoguan|Maba,Shaoguan,59082.0,24.666666666666668,113.6,95.0
China,GD,Shenzhen|Ma Tso Lung San Tsuen|Fuk Tak Kung,Shenzhen Bao'an Intl AP,59493.0,22.55,114.1,13.0
China,GD,Shijiao|Fogang|Yangtang,Shijiao,59087.0,23.883333333333333,113.51666666666667,88.0
China,GD,Shuangtang|Huaiji,Shuangtang,59271.0,23.95,112.2,61.0
China,GD,Suhu|Xuwen,Suhu,59754.0,20.3667,110.1667,50.0
China,GD,Tanbian|Ming-Cheng,Tanbian,59472.0,22.867,112.7,12.0
China,GD,Taoqian|Song-Lin-Ba,Taoqian,59303.0,23.9667,115.9667,103.0
China,GD,Tongyouping|Name Unknown (onc),Tongyouping,59076.0,24.067,112.933,183.0
China,GD,Wantian|Xinfeng|Shangying,Wantian,59097.0,24.067,114.35,196.0
China,GD,Wushi|Wu-Shi,Wushi,59085.0,24.583,113.6,50.0
China,GD,Xinjiang|Xin-Jiang,Xinjiang,59086.0,24.467,113.833,132.0
China,GD,Yangcheng,Yangcheng,59075.0,24.483,112.633,72.0
China,GD,Yuanshan|Lianping,Yuanshan,59096.0,24.383333333333333,114.48333333333333,283.9
China,GD,Zhanjiang|Qunjing|Haitou,Guangdong Ocean University,59658.0,21.15,110.3,50.0
China,GD,Zhaoqing|Gaoyao,Zhaoqing,59278.0,23.05,112.46666666666667,35.0
China,GD,Zhegu|Huilai,Zhegu,59317.0,23.0833,116.3,27.0
China,GD,Zhuhai|Tianxin,Zhuhai / MET OBS,59488.0,22.017,113.383,5.0
China,GS,Anyuan,Anyuan,52779.0,37.267,102.883,2735.0
China,GS,Beidao,Beidao,57014.0,34.56666666666667,105.86666666666666,1086.0
China,GS,Caiqi,Caiqi,52679.0,38.083,102.917,1525.0
China,GS,Caopo,Caopo,53907.0,35.217,105.267,1767.0
China,GS,Changma,Changma,52523.0,39.833,96.75,2115.0
China,GS,Damanbu|Zhangye|Zhang-ye,South,52651.0,38.817,100.4,1539.0
China,GS,Dongle|Zhangye|Zhang-ye,Southeast,52653.0,38.8,100.667,1586.0
China,GS,Dunhuang,Dunhuang,52418.0,40.15,94.68333333333334,1137.0
China,GS,Gahai|Ga-Hai,Gahai,56074.0,34.2,102.3,3532.0
China,GS,Gancheng,Gancheng,52788.0,37.233,103.4,2672.0
China,GS,Gancheng,Gancheng,52788.0,37.233,103.4,2672.0
China,GS,Gongpoquan|Mazong Shan,Gongpoquan / Mountain,52323.0,41.8,97.03333333333333,1770.0
China,GS,Guangping|Wu-Tong-Yuan,Guangping,57203.0,32.817,105.7,575.0
China,GS,Gulang|Gu Lang,Gulang,52776.0,37.5,102.833,2241.0
China,GS,Hongliujing,Hongliujing,52434.0,40.467,97.183,1360.0
China,GS,Hongliuyuan,Hongliuyuan,52318.0,41.067,95.417,1748.0
China,GS,Hongshukou,Hongshukou,52223.0,42.467,96.8,1498.0
China,GS,Hongsihu|Shan-Dan,Hongsihu,52661.0,38.8,101.0833,1779.0
China,GS,Huajialing,Huajialing,52996.0,35.38333333333333,105.0,2354.0
China,GS,Jiayuguan|Suzhou,Jiayuguan / MET OBS,52533.0,39.766666666666666,98.48333333333333,1484.0
China,GS,Jinchang|Jin-Chang,Jinchang,52674.0,38.4667,102.1833,1620.0
China,GS,Jingyuan,Jingyuan,52895.0,36.5833,104.6833,1408.0
China,GS,Jinqianghe,Pass,52787.0,37.2,102.86666666666666,3029.0
China,GS,Jiupotou,Jiupotou,53938.0,35.283,108.3,1189.0
China,GS,Kangzhuang,Kangzhuang,53927.0,35.067,107.15,1311.0
China,GS,Labrang,Labrang,52978.0,35.233,102.5,3050.0
China,GS,Lahaxian,Lahaxian,56080.0,35.0,102.9,2955.0
China,GS,Lanzhou|Lanchou|Lanchow|Xigu,Lanzhou / HEL?,52888.0,36.117,103.617,1559.0
China,GS,Lhamogoinba|Lang-Mu-Si,Lhamogoinba,56075.0,34.1,102.617,3386.0
China,GS,Linshui|Jiayuguan|Jiuquan,Jinta (?),52447.0,39.8167,98.9,1336.0
China,GS,Luoquanwan|Approximate Location,Luoquanwan,52886.0,36.567,103.7,1987.0
China,GS,Luotuotan|Lanchou|Lanchow,Luotuotan,52889.0,36.05,103.8833,1528.0
China,GS,Luyang|Ching-T'Ai,Luyang,52797.0,37.1333,104.2167,1525.0
China,GS,Madiwan|Ming-Yang-Chen,Madiwan,57102.0,33.817,105.383,1740.0
China,GS,Minqin,Minqin,52681.0,38.63333333333333,103.08333333333333,1367.0
China,GS,Minqin,Minqin,52682.0,38.63,103.07,1367.0
China,GS,Minqin,Minqin,52698.0,38.63,103.07,1367.0
China,GS,Nanhua,Nanhua,52546.0,39.383,99.717,1354.0
China,GS,Pingliang,Pingliang,53915.0,35.53333333333333,106.66666666666667,1416.0
China,GS,Qi’erguoda,Qi’erguoda,56086.0,34.0,103.833,2566.0
China,GS,Qijiayuan|Hung-Te,Qijiayuan,53821.0,36.7667,107.2,1322.0
China,GS,Qinling,Qinling,57005.0,34.5,105.5,1680.0
China,GS,Sanjiaocheng|Yu Zhong,Sanjiaocheng,52983.0,35.86666666666667,104.15,1875.0
China,GS,Shanglaowan,Shanglaowan,53823.0,36.783,107.75,1577.0
China,GS,Shimen,Shimen,52798.0,37.067,104.467,1933.0
China,GS,Shuangchengtzu,Shuangchengtzu,52446.0,40.4,99.8,1165.0
China,GS,Si’ertan,Si’ertan,52788.0,37.167,103.683,2476.0
China,GS,Tianshui,Tianshui,57006.0,34.5833,105.75,1155.0
China,GS,Tuwopu|Salt Lake,Tuwopu,52671.0,38.95,102.067,1336.0
China,GS,Wudu,Wudu,56096.0,33.4,104.91666666666667,1079.0
China,GS,Wushan|Wu-Shan,Wushan,56093.0,34.7167,104.8833,1596.0
China,GS,Xiaxihao,Xiaxihao,52436.0,40.266666666666666,97.03333333333333,1528.0
China,GS,Xiejiazhuang,Xiejiazhuang,57007.0,34.1,105.033,1503.0
China,GS,Xifengzhen,Xifengzhen,53923.0,35.733333333333334,107.63333333333334,1423.0
China,GS,Xingxingxia|Ya-Man-Su,Xingxingxia,52303.0,41.883,95.533,2099.0
China,GS,Yaodian|Lintao,Yaodian,52986.0,35.3333,104.0,2159.0
China,GS,Yuanquan|An-Xi,Yuanquan,52424.0,40.5,96.0,1213.0
China,GS,Yumendong Zhen,Yumendong Zhen,52536.0,39.617,98.05,2140.0
China,GS,Zha’aka,Zha’aka,56085.0,33.867,103.433,3174.0
China,GS,Zhaizi|Linxia,Zhaizi,52984.0,35.4667,102.9833,2235.0
China,GS,Zhangye|Zhang-ye|Shajingzi,Zhangye,52652.0,39.083333333333336,100.28333333333333,1459.0
China,GS,Zhiqi|Cheng-Xian,Zhiqi,57106.0,33.75,105.75,984.0
China,GX,Babu|Hexian|Hezhou,Babu,59065.0,24.4667,111.5667,228.0
China,GX,Baimu|Bai-Mu,Baimu,59633.0,21.783,108.817,10.0
China,GX,Baise|Bose|Pai-Se|Poseh|Baicheng,Baise AP,59211.0,23.9,106.6,191.0
China,GX,Bangli|Approximate Location,Bangli,57927.0,25.283,107.3,865.0
China,GX,Beihai,Beihai,59644.0,21.4475,109.1836111111111,10.3
China,GX,Cencheng|Cen-Xi,Cencheng,59453.0,22.9333,110.9833,151.0
China,GX,Dawan|Da-Wan,Dawan,59242.0,23.85,109.4167,73.0
China,GX,Dongxing|Dong-Xing,Dongxing,59626.0,21.55,107.9667,5.0
China,GX,Gaoling,Gaoling,59037.0,24.017,108.083,162.0
China,GX,Gongdong,Gongdong,57944.0,25.533,109.2,395.0
China,GX,Guilin|Shangyao,Guilin Liangjiang Intl AP (Opened 1996),57957.0,25.333333333333332,110.3,156.0
China,GX,Guiping,Guiping,59254.0,23.333333333333332,110.01666666666667,130.3
China,GX,Hechi,Jnchengjiang,59023.0,24.7,108.03333333333333,220.0
China,GX,Huaili|Rong-Lao-Xiang,Huaili,59217.0,23.133,106.183,1006.0
China,GX,Jinji,Jinji,59259.0,23.217,110.817,64.0
China,GX,Liuchen|Liu-Chen,Liuchen,59258.0,23.2,110.367,116.0
China,GX,Liupai|Tian'E,Liupai,59021.0,25.0833,107.2,583.0
China,GX,Liuzhai|Liu-Chai,Liuzhai,57925.0,25.3,107.4,857.0
China,GX,Liuzhou,Liuzhou,59046.0,24.366666666666667,109.46666666666667,306.0
China,GX,Liwucun|Shan-Kou,Liwucun,59646.0,21.633,109.733,13.0
China,GX,Mengshan,Mengshan,59058.0,24.2,110.51666666666667,146.0
China,GX,Nanning,Nanning / MET OBS,59431.0,22.783333333333335,108.55,152.0
China,GX,Nanxu|Long'An,Nanxu,59228.0,23.1333,107.65,117.0
China,GX,Pingma,Pingma,59224.0,23.6,107.117,97.0
China,GX,Pohe|Napo,Pohe,59209.0,23.4,105.81666666666666,855.8
China,GX,Pohong|Huo-Jiao,Pohong,59216.0,23.633,106.717,535.0
China,GX,Py Lao|Dong-Jiao,Py Lao,59622.0,21.617,107.6,667.0
China,GX,Qiaoli|Qiao-Li,Qiaoli,59234.0,23.633,108.133,179.0
China,GX,Qinzhou,Qinzhou,59632.0,22.0,108.61666666666666,50.0
China,GX,Rongshui|Rong-Shui,Rongshui,57947.0,25.0667,109.25,111.0
China,GX,Shatou|Gu-Na,Shatou,59262.0,23.833,111.567,206.0
China,GX,Tangqiao,Tangqiao,59417.0,22.366666666666667,106.75,140.0
China,GX,Weizhou|Wei-Zhou Island,Weizhou,59647.0,21.0333,109.1167,51.0
China,GX,Wulong|Xinjing,Wulong,59218.0,23.1333,106.4167,771.0
China,GX,Wuxuan|Wu-Xuan,Wuxuan,59245.0,23.583,109.65,47.0
China,GX,Wuzhou,Wuzhou,59265.0,23.483333333333334,111.3,34.0
China,GX,Xiangzhou,Xiangzhou,59243.0,23.95,109.683,122.0
China,GX,Xilingjiao|Name Unknown,Xilingjiao,57958.0,25.317,110.55,446.0
China,GX,Xuetian|Bobai,Xuetian,59446.0,22.25,109.9667,46.0
China,GX,Zhili|Ning-Ming,Zhili,59427.0,22.117,107.133,117.0
China,GZ,Anshun,Anshun,57806.0,26.2667,105.9667,1416.0
China,GZ,Bagong|Sansui,Bagong,57832.0,26.966666666666665,108.66666666666667,628.0
China,GZ,Bajie|Approximate Location,Bajie,57931.0,25.85,108.083,443.0
China,GZ,Benzhuang,Benzhuang,57726.0,27.533,107.95,719.0
China,GZ,Chanxi|De-Wang,Chanxi,57732.0,27.833,108.433,829.0
China,GZ,Chemin|Rongjiang,Guzhou,57932.0,25.966666666666665,108.53333333333333,250.0
China,GZ,Dafang|Da-Fang,Dafang,57708.0,27.15,105.6,1655.0
China,GZ,Dashan,Dashan,57706.0,27.5,105.833,1493.0
China,GZ,Dushan,Dushan,57922.0,25.833333333333332,107.55,1009.0
China,GZ,Fengxiang Chengguanzhen|Fengxiang,Fengxiang Chengguanzhen,57025.0,34.516666666666666,107.38333333333334,795.0
China,GZ,Gong’e|Approximate Location,Gong’e,57913.0,25.833,106.833,1034.0
China,GZ,Goujiang|Approximate Location,Goujiang,57716.0,27.5,106.833,929.0
China,GZ,Gudong,Gudong,57911.0,25.95,107.133,961.0
China,GZ,Huangli,Huangli,57834.0,26.433,108.133,929.0
China,GZ,Hushi|Ch'Ih-Shui Ho,Hushi,57606.0,28.4833,105.9333,282.0
China,GZ,Lantu,Lantu,57923.0,25.883,107.75,563.0
China,GZ,Lezhi|Approximate Location,Lezhi,57802.0,26.833,105.5,1466.0
China,GZ,Linxia|Luodian,Linxia,57916.0,25.433333333333334,106.76666666666667,374.0
China,GZ,Maokou|Lang-Tai,Maokou,57807.0,26.05,105.217,706.0
China,GZ,Mukong,Mukong,57715.0,27.5,106.5,847.0
China,GZ,Natun|Hua-Gong,Natun,57901.0,25.95,105.117,1235.0
China,GZ,Nongyang,Nongyang,57909.0,25.25,105.867,339.0
China,GZ,Panshui|Pu-An,Panshui,56793.0,25.7833,104.95,1572.0
China,GZ,Qingfeng,Qingfeng,57707.0,27.3,105.23333333333333,1734.0
China,GZ,Shijing|Long-Zhuan,Shijing,57723.0,27.967,107.783,857.0
China,GZ,Shuanggu,Shuanggu,57822.0,26.7,107.5,887.0
China,GZ,Sitang|Sinan,Sitang,57731.0,27.95,108.25,576.0
China,GZ,Taigong|Tai-Jiang,Taigong,57831.0,26.667,108.333,869.0
China,GZ,Tongren,Tongren,57741.0,27.733,109.167,328.0
China,GZ,Wangka|Dao-Ping,Wangka,57823.0,26.867,107.333,1185.0
China,GZ,Weining,Weining,56691.0,26.866666666666667,104.28333333333333,2205.0
China,GZ,Wuyang,Wuyang,57738.0,27.05,108.4,464.0
China,GZ,Xieyu,Xieyu,57722.0,27.75,107.433,767.0
China,GZ,Xingshan|Ma-Jiang,Xingshan,57825.0,26.5,107.5833,936.0
China,GZ,Yangchang|Yang-Chang,Yangchang,57813.0,26.85,106.883,1290.0
China,GZ,Yangsitun,Yangsitun,57902.0,25.433333333333334,105.18333333333334,1361.0
China,GZ,Yuhuang,Yuhuang,57614.0,28.567,106.083,299.0
China,GZ,Zhengnan|Chen-Nan,Zhengnan,57623.0,28.7,107.883,643.0
China,GZ,Zhetang|Zhen-Feng,Zhetang,57906.0,25.3833,105.65,1049.0
China,GZ,Zhijin|Zhi-Jin,Zhijin,57803.0,26.7,105.7667,1443.0
China,GZ,Zhongshu|Zhong-Shu|Maocaopu,Zhongshu,57712.0,27.733333333333334,106.95,936.0
China,GZ,Zunyi,Zunyi,57713.0,27.7,106.8833,858.0
China,HA,Anyang,Anyang,53913.0,36.11,114.36,76.0
China,HA,Anyang|Guocun,Zhangde,53898.0,36.05,114.13333333333334,133.0
China,HA,Bobi|Shen-Chuang,Bobi,53985.0,35.45,113.5,110.0
China,HA,Chenwa|Mengjin,Chenwa,57071.0,34.8,112.46666666666667,329.1
China,HA,Dazhuang|Nanyang,Dazhuang,57178.0,33.1,112.48333333333333,160.0
China,HA,Fanlou|Zhumadian,Fanlou,57290.0,32.93333333333333,113.91666666666667,104.0
China,HA,Gaozhuang,Gaozhuang,57189.0,33.15,113.817,58.0
China,HA,Guandi,Guandi,53986.0,35.25,113.95,67.0
China,HA,Guangshan,Guangshan,57299.0,32.017,114.883,59.0
China,HA,Hetaoyuan,Hetaoyuan,57068.0,34.233,111.433,616.0
China,HA,Huangchuan|Huang-Chuan,Huangchuan,58207.0,32.133,115.033,61.0
China,HA,Huanglongsi|Kaifeng|K'aifeng,Huanglongsi,57091.0,34.75,114.4167,70.0
China,HA,Huangzhuang,Huangzhuang,57068.0,34.167,111.5,1147.0
China,HA,Huaxian Linchang,Huaxian Linchang,53995.0,35.583,114.55,49.0
China,HA,Jiaxian,Jiaxian,57181.0,33.9667,113.2167,103.0
China,HA,Lanfeng|Nao-Kao,Lanfeng,57093.0,34.833,114.817,78.0
China,HA,Laocheng,Laocheng,57072.0,34.817,112.633,113.0
China,HA,Licun|Mian-Chi,Licun,57063.0,34.633,111.667,555.0
China,HA,Luoshan|Luo-Shan,Luoshan,57298.0,32.217,114.533,50.0
China,HA,Luoyang|Luo-yang|Loyang,Luoyang,57073.0,34.667,112.417,151.0
China,HA,Lushi,Lushi,57067.0,34.08027777777778,111.07277777777777,654.0
China,HA,Ruyang|Luoyang|Luo-yang|Loyang,Ruyang,57078.0,34.15,112.467,301.0
China,HA,Shangcai|Shang-Cai,Shangcai,57197.0,33.267,114.267,73.0
China,HA,Shangdian|Approximate Location,Shangdian,57188.0,33.233,113.467,123.0
China,HA,Shangqiu,Shangqiu,58005.0,34.4,115.6333,53.0
China,HA,Shenzhuang,Shenzhuang,57173.0,33.733,112.917,115.0
China,HA,Songxian|Tien-Hu,Songxian,57077.0,34.15,112.1,320.0
China,HA,Xihua,Xihua,57193.0,33.78333333333333,114.51666666666667,53.0
China,HA,Xinyang,Xinyang,57297.0,32.13333333333333,114.05,75.0
China,HA,Zhangpan|Xuchang,Zhangpan,57089.0,34.0,113.9667,64.0
China,HA,Zhengzhou|Cheng-Chou,Zhengzhou / MET OBS,57083.0,34.71666666666667,113.65,111.0
China,HB,Bancang,Bancang,57355.0,31.667,110.367,2191.0
China,HB,Buhe|Sha-Shi|Shashi,Buhe,57477.0,30.3,112.233,25.0
China,HB,Changchong|Yingshan,Changchong,58402.0,30.75,115.6667,131.0
China,HB,Dengjiawan|Yun-Xian,Dengjiawan,57253.0,32.8,110.8,147.0
China,HB,Duobaowan|Sha-Yang|Gaojiatai,Duobaowan,57472.0,30.667,112.6,43.0
China,HB,Enshi,Enshi,57447.0,30.283333333333335,109.46666666666667,435.0
China,HB,Enshi|En-Shi (chi-Afb),Enshi,57448.0,30.3,109.483,441.0
China,HB,Fangxian Chengguanzhen|Fangxian,Fangxian Chengguanzhen,57259.0,32.03333333333333,110.76666666666667,648.0
China,HB,Fenshuizui,Fenshuizui,57483.0,30.65,113.65,30.0
China,HB,Ganxi,Ganxi,57365.0,31.45,111.667,368.0
China,HB,Guangshui,Guangshui,57394.0,31.617,113.817,106.0
China,HB,Haohuqiao,Haohuqiao,58502.0,29.75,115.917,31.0
China,HB,Haoxue|Yang-Jia-Chang|Huangjiatai,Haoxue,57478.0,30.033,112.417,37.0
China,HB,Hong’an Chengguanzhen|Hong-An,Hong’an Chengguanzhen,57398.0,31.3,114.617,68.0
China,HB,Jiangkou|Jiang-Kou,Jiangkou,57466.0,30.433,111.85,41.0
China,HB,Jingzhou|Jiangling|Lijiatai,Jingzhou,57476.0,30.35,112.15,27.0
China,HB,Jinjikou|Guan-Dian-Gou,Jinjikou,57457.0,30.233,110.2,693.0
China,HB,Laohekou,Laohekou,57265.0,32.43333333333333,111.73333333333333,131.0
China,HB,Leijiadian,Leijiadian,58403.0,30.883,115.717,263.0
China,HB,Lengshui|Wu-Jia-Chi(chi-Afb)|Zhoujiawo,Lengshui,57377.0,31.117,112.4,95.0
China,HB,Macheng,Macheng,57399.0,31.133333333333333,114.95,52.0
China,HB,Meichuan|Mei-Chuan,Meichuan,58408.0,30.133,115.6,42.0
China,HB,Ouchikou|Zhi-Zhou,Ouchikou,57572.0,29.733,112.3,40.0
China,HB,Puqi,Puqi,57583.0,29.7167,113.8833,41.0
China,HB,Qiji|Zaoyang,Qiji,57279.0,32.15,112.66666666666667,125.0
China,HB,Qizhou,Qizhou,58407.0,30.0667,115.3333,10.0
China,HB,Ruanjiangwan,Ruanjiangwan,57379.0,31.217,112.833,103.0
China,HB,Shibanyuan,Shibanyuan,57255.0,32.5,110.5,453.0
China,HB,Shuitianba|Zigui,Shuitianba,57450.0,31.0167,110.7,269.0
China,HB,Suizhou,Suizhou,57385.0,31.7167,113.3667,73.0
China,HB,Taiyanghe|Approximate Location,Taiyanghe,57445.0,30.6,109.533,797.0
China,HB,Tandanghe|Approximate Location,Tandanghe,57367.0,31.167,111.167,826.0
China,HB,Tiancheng|Chong-Yang,Tiancheng,57594.0,29.55,114.033,71.0
China,HB,Tumiao,Tumiao,57491.0,30.95,114.233,41.0
China,HB,Wendou|Wen-Tou,Wendou,57532.0,29.867,108.567,586.0
China,HB,Wufeng|Wu-Feng,Wufeng,57458.0,30.2,110.6667,689.0
China,HB,Wuhan|Dingjiatai|Wujiashan,Wuhan Tianhe Intl AP,57494.0,30.6,114.05,24.0
China,HB,Wumashui|Laifeng,Wumashui,57545.0,29.5333,109.3833,683.0
China,HB,Xinshazhou|Jian-Li,Xinshazhou,57573.0,29.817,112.883,30.0
China,HB,Yangdang|Approximate Location,Yangdang,57278.0,32.317,112.633,97.0
China,HB,Yehua|Lu-Cong-Po,Yehua,57451.0,30.7833,110.2667,1660.0
China,HB,Yichang,Yichang,57461.0,30.733333333333334,111.36666666666666,208.0
China,HB,Yichang|Tumen|Yi-Chang (chi-Afb)|Duzhiyan,Yichang AB,57462.0,30.67,111.44,68.0
China,HB,Zhongxiang|Shangfengjialing,Zhongxiang,57378.0,31.2,112.63333333333334,108.0
China,HE,Anyingbu,Shacheng,54405.0,40.416666666666664,115.5,561.0
China,HE,Cangzhou,Cangzhou,54616.0,38.3333,116.8333,9.0
China,HE,Chengde|Niuquanzigou|(not Chengdu),Chengde,54423.0,40.96666666666667,117.91666666666667,387.0
China,HE,Dage|Fengning,Dagezhen,54308.0,41.2,116.63333333333334,723.0
China,HE,Dahoucun|Baoding|Qingyuan,Dahoucun,54602.0,38.733333333333334,115.48333333333333,14.0
China,HE,Damanzhuang|Potou,Damanzhuang,54618.0,38.083333333333336,116.55,7.0
China,HE,Damanzhuang|Potou,Damanzhuang,58618.0,38.083,116.55,8.0
China,HE,Fujiatun|Tangshan|T'angshan|Majuqiao,Fujiatun,54534.0,39.65,118.1,17.0
China,HE,Guangzong|Guang Zung,Guangzong,54707.0,37.067,115.15,31.0
China,HE,Hejian|He-Jian,Hejian,54614.0,38.433,116.083,20.0
China,HE,Huanghua,Huanghua,54624.0,38.3833,117.35,12.0
China,HE,Laoti|Baxian,Laoti,54518.0,39.05,116.4,5.0
China,HE,Leting,Leting,54539.0,39.43333333333333,118.9,10.0
China,HE,Mangshikou,Mangshikou,54501.0,39.833,115.167,1457.0
China,HE,Nangong,Nangong,54705.0,37.3667,115.3833,24.0
China,HE,Qinglong,Qinglong,54436.0,40.4,118.95,233.0
China,HE,Shanhaiguan|Shan-Hai-Kuan,Shanhaiguan,54449.0,40.0,119.75,21.0
China,HE,Shibeikou,Shibeikou,53892.0,36.8,114.45,60.0
China,HE,Sujiawa|Zunhua,Sujiawa,54429.0,40.2,117.9667,44.0
China,HE,Suning,Suning,54606.0,38.433,115.833,6.0
China,HE,Tangzizhai,Tangzizhai,54543.0,39.967,119.733,18.0
China,HE,Wangjiajing|Wang Chia Ching,Wangjiajing,54702.0,37.833,115.383,28.0
China,HE,Weichang,Zhuizishan,54311.0,41.93333333333333,117.75,878.0
China,HE,Xingtai,Xingtai,53798.0,37.18083333333333,114.35888888888888,172.0
China,HE,Yutian|Yu-Tian,Yutian,54523.0,39.883,117.75,26.0
China,HE,Yuzhou|Yu Xian,Yuzhou,53593.0,39.833333333333336,114.56666666666666,904.0
China,HE,"Zangang|Zan-gang|Ts,an Kang",Zangang,54517.0,39.05,116.2,11.0
China,HE,Zhangbei,Zhangbei,53398.0,41.133,114.7,1393.0
China,HE,Zhangjiakou,Zhangjiakou,54401.0,40.78333333333333,114.88333333333334,734.0
China,HE,Zhentou,Zhentou,53698.0,38.016666666666666,114.38333333333334,89.3
China,HI,Danhua|Approximate Location|Jiaodong,Danhua,59853.0,19.833,110.833,35.0
China,HI,Danzhou|Danxian|Nada,Nada,59845.0,19.516666666666666,109.58333333333333,149.0
China,HI,Dongfang|Basuo,Basuo,59838.0,19.1,108.61666666666666,2.0
China,HI,Duo’er|Huang-Liu|Xinrong,Duo’er,59938.0,18.483,108.817,9.0
China,HI,Haikou|Xiangrong,Haikou,59758.0,20.0,110.25,52.0
China,HI,Hongdao|Xin-Shi,Hongdao,59849.0,19.0667,109.8833,183.0
China,HI,Jiaxian,Jiaxian,59858.0,19.25,110.483,25.0
China,HI,Qionghai|Jiaji,Jiaji,59855.0,19.216666666666665,110.48333333333333,23.3
China,HI,Sancaizhen|Ling-Shui|Daning,Sancaizhen,59954.0,18.5,110.0,31.0
China,HI,Shizu|Bao-Ting|Xinmin,Shizu,59945.0,18.483,109.7,64.0
China,HI,Wenfeng,Wenfeng,59858.0,19.23,110.47,25.0
China,HI,Yacha|Bai-Sha,Yacha,59848.0,19.233,109.45,209.0
China,HI,Yulin|Yaxian|Xincun,Sanya,59948.0,18.216666666666665,109.58333333333333,7.0
China,HL,Anda,Anda,50854.0,46.38333333333333,125.31666666666666,142.0
China,HL,Aoluguya|Mohe,Aoluguya,50136.0,52.97083333333333,122.53027777777778,440.0
China,HL,Baoqing,Baoqing,50888.0,46.31666666666667,132.18333333333334,88.0
China,HL,Dongjingcheng,Dongjingcheng,54097.0,44.133,129.217,274.0
China,HL,Fujin,Fujin,50788.0,47.233333333333334,131.98333333333332,50.0
China,HL,Hailun,Hailun,50756.0,47.445277777777775,126.87444444444445,220.0
China,HL,Heihe|Aihui,Heihe,50468.0,50.25,127.45,172.0
China,HL,Hulin,Hulin,50983.0,45.75,132.86666666666667,98.1
China,HL,Hulin,Hulin,50988.0,45.76,132.96,103.0
China,HL,Huma,Huma,50353.0,51.733333333333334,126.63333333333334,176.0
China,HL,Hutongzhen|Kumara-In-Amur,Hutongzhen,31444.0,51.567,126.717,161.0
China,HL,Jiamusi,Jiamusi,50873.0,46.817,130.333,80.0
China,HL,Jixi,Jixi,50978.0,45.3,130.91666666666666,214.0
China,HL,Jusheng|Long-Zhen,Jusheng,50656.0,48.65,126.6667,274.0
China,HL,Keshan,Keshan,50658.0,48.083333333333336,125.78333333333333,291.0
China,HL,Mudanjiang|Mu-Tan-Chiang,Mudanjiang / MET OBS,54094.0,44.5,129.66666666666666,251.0
China,HL,Nehe,Nehe,50646.0,48.483,124.85,192.0
China,HL,Nenjiang,Nenjiang,50557.0,49.166666666666664,125.23333333333333,224.0
China,HL,Qindeli Wu Fenchang Wushiqi Dui,Qindeli Wu Fenchang Wushiqi Dui,50741.0,47.9,133.5,32.0
China,HL,Qiqihar|Ch'i-Ch'i-Ha-Erh,Sanjiazi AP|San-Chia-Tzu Afld,50745.0,47.38333333333333,123.91666666666667,124.0
China,HL,San-chien-fang-tzu|San-Chen-Fang,San-chien-fang-tzu,50742.0,47.7833,124.1667,146.0
China,HL,Shahezi,Shahezi,54080.0,44.483,127.6,239.0
China,HL,Shangzhi,Shangzhi,50968.0,45.21666666666667,127.96666666666667,196.0
China,HL,Suifenhe,Suifenhe,54096.0,44.38333333333333,131.15,456.0
China,HL,Sunwu,Sunwu,50564.0,49.43333333333333,127.35,212.0
China,HL,Tahe|Ta-He,Tahe,50246.0,52.3333,124.8,343.0
China,HL,Tailai,Tailai,50844.0,46.4,123.45,129.0
China,HL,Tieli|Tie-Li,Tieli,50862.0,47.0667,128.0333,208.0
China,HL,Tonghe,Tonghe,50963.0,45.96666666666667,128.73333333333332,102.0
China,HL,Tongquan|Ming-Shui,Tongquan,50758.0,47.25,125.8833,220.0
China,HL,Wangkui|Wang-Kui,Wangkui,50853.0,46.8333,126.4833,188.0
China,HL,Xing’antai|He-Gang,Xing’antai,50775.0,47.35,130.2,155.0
China,HL,Xinxiangfang,Xinxiangfang,50953.0,45.93333333333333,126.56666666666666,118.0
China,HL,Yichun,Yichun,50774.0,47.71666666666667,128.83333333333334,239.0
China,HL,Yilan|Yi-Lan,Yilan,50877.0,46.3,129.55,71.0
China,HN,Chaling Chengguanzhen|Cha-Ling|Mijiang,Chaling Chengguanzhen,57882.0,26.8,113.55,108.0
China,HN,Changsha|Ch'angsha|Leifeng,Changsha,57687.0,28.116666666666667,112.78333333333333,119.0
China,HN,Changsha|Langli,Changsha / MET OBS,57679.0,28.2,113.08333333333333,38.0
China,HN,Changsha|Leifeng,Changsha,57706.0,28.23,112.86,68.0
China,HN,Chenzhou,Chenzhou,57972.0,25.735277777777778,112.9738888888889,185.0
China,HN,Dajinggang|Anxiang,Dajinggang,57574.0,29.4333,112.1833,35.0
China,HN,Darongtang,Darongtang,57667.0,28.317,111.133,445.0
China,HN,Dayuanshan|Approximate Location,Dayuanshan,57765.0,27.5,111.5,383.0
China,HN,Dengta|Shuang-Feng,Dengta,57774.0,27.45,112.2,86.0
China,HN,Gaotangling,Gaotangling,57676.0,28.367,112.783,31.0
China,HN,Guiyang Chengguanzhen|Gui-Yang,Guiyang Chengguanzhen,57973.0,25.733,112.717,391.0
China,HN,Hengjiang|Long-Hui-Ang,Hengjiang,57759.0,27.35,110.95,318.0
China,HN,Hengxiwan|Yueyang,Hengxiwan,57584.0,29.383333333333333,113.08333333333333,52.0
China,HN,Huangjiabao|Tongdao,Shuangjiang,57845.0,26.166666666666668,109.78333333333333,390.0
China,HN,Huayuan|Hua-Yuan,Huayuan,57645.0,28.617,109.483,254.0
China,HN,Jiangjia|Ning-Yuan,Jiangjia,57966.0,25.6,111.9,191.0
China,HN,Jigongpo,Jigongpo,57662.0,29.05,111.68333333333334,46.0
China,HN,Jigongpo|Chang-De|Dongjiao,Jigongpo,57569.0,29.033,111.7,35.0
China,HN,Jinggang,Jinggang,57676.0,28.467,112.783,27.0
China,HN,Jiuqu,Jiuqu,57665.0,28.383,111.467,62.0
China,HN,Lianhua,Lianhua,57653.0,28.833,110.833,254.0
China,HN,Lijiayuan,Lijiayuan,57960.0,25.55,111.583,178.0
China,HN,Liulincha,Liulincha,57653.0,28.783,111.017,75.0
China,HN,Liyuan|Sangzhi,Liyuan,57554.0,29.4,110.16666666666667,323.0
China,HN,Longbizui|Approximate Location,Longbizui,57646.0,28.5,109.833,314.0
China,HN,Longjiangping|Approximate Location,Longjiangping,57982.0,25.833,113.5,854.0
China,HN,Longyang|Han-Shou|Hanshou,Longyang,57663.0,28.917,111.967,34.0
China,HN,Lufeng|Xu-Bu,Lufeng,57753.0,27.917,110.583,183.0
China,HN,Luozizhuang|Sha-Di-Qi,Luozizhuang,57557.0,29.05,110.133,565.0
China,HN,Majitang|Ma-Ji-Tang,Majitang,57666.0,28.467,111.75,55.0
China,HN,Meihuaxu|Daoxian,Meihuaxu,57965.0,25.6167,111.6,188.0
China,HN,Nanjindu,Nanjindu,57866.0,26.233333333333334,111.61666666666666,174.0
China,HN,Nanzhou,Nanzhou,57576.0,29.333,112.417,31.0
China,HN,Panlongqiao|Hui-Tong,Panlongqiao,57843.0,26.867,109.717,328.0
China,HN,Pengjiaci|Name Unknown|Wanli,Pengjiaci,57983.0,26.933,113.867,188.0
China,HN,Qianzhouzhen|Qian-Zhou-Zhen,Qianzhouzhen,57649.0,28.2667,109.6833,190.0
China,HN,Shanlanpu|Wugang,Shanlanpu,57853.0,26.733333333333334,110.63333333333334,340.0
China,HN,Shaoyang,Shaoyang,57766.0,27.183333333333334,111.45,263.0
China,HN,Shazicao|Name Unknown (onc),Shazicao,57962.0,25.767,111.633,677.0
China,HN,Shifangtian|Huaihua,Shifangtian,57749.0,27.566666666666666,110.0,257.8
China,HN,Songmutang|Hengyang,Songmutang,57872.0,26.9333,112.5833,84.0
China,HN,Taiping|Ci-Li|Jiangjiaping,Taiping,57564.0,29.433,111.1,91.0
China,HN,Tuanshanpu|Pingjiang,Tuanshanpu,57682.0,28.75,113.6167,102.0
China,HN,Tuojiang|Tuo-Jiang,Tuojiang,57968.0,25.183,111.583,219.0
China,HN,Xiangdongtiekuang|Chaling|Pingzidu,Xiangdongtiekuang,57883.0,26.8,113.5333,104.0
China,HN,Xiangtandong|Xiang-Tan,Xiangtandong,57773.0,27.883,112.917,37.0
China,HN,Xiangxiang|Xiang-Xiang,Xiangxiang,57772.0,27.733,112.533,38.0
China,HN,Xiling|Nanyue,Xiling,57776.0,27.3,112.7,894.0
China,HN,Xinguan|Shi-Men|Renjiafang,Xinguan,57562.0,29.5833,111.3,44.0
China,HN,Yanwuchong|Qian-Yang,Yanwuchong,57754.0,27.317,110.167,316.0
China,HN,Yanxi|Approximate Location,Yanxi,57659.0,28.167,110.967,190.0
China,HN,Yaotangji|Yuanjiang,Yaotangji,57671.0,28.85,112.3833,39.0
China,HN,Yiquan|Mei-Cheng-Zhen,Yiquan,57669.0,28.15,111.6333,202.0
China,HN,Yuanjiang|Yuan-Jiang,Yuanjiang,57672.0,28.85,112.367,52.0
China,HN,Yuanling,Yuanling,57655.0,28.466666666666665,110.4,143.0
China,HN,Zhupingpu,Zhupingpu,57745.0,27.45,109.68333333333334,263.0
China,HP,Dao-Bach-Long Islan,Dao-Bach-Long Islan,59738.0,20.133,107.733,12.0
China,JL,Baicheng,Baicheng,50936.0,45.633,122.85,151.0
China,JL,Beitaizi|Huadian,Beitaizi,54273.0,42.983333333333334,126.75,246.0
China,JL,Changchun|Ch'angch'un|Hexin,Changchun MET,54161.0,43.9,125.21666666666667,236.0
China,JL,Changling,Changling,54049.0,44.25,123.96666666666667,178.0
China,JL,Chishui,Chishui,54181.0,43.717,127.15,275.0
China,JL,Dalai|Ta-An,Dalai,50945.0,45.5,124.3,130.0
China,JL,Dunhua,Dunhua,54186.0,43.36666666666667,128.2,527.0
China,JL,Fusong|Shunjiang,Fusong,54284.0,42.3333,127.2833,570.0
China,JL,Hafu,Hafu,54158.0,43.167,124.5,218.0
China,JL,Huinan|Hui-Nan-Zhen,Huinan,54274.0,42.617,126.267,317.0
China,JL,Jilin|Kirin|Chi-Lin,Jilin MET,54172.0,43.8618,126.5397,283.0
China,JL,Jingyu|Jing-Yu,Jingyu,54276.0,42.383,126.817,530.0
China,JL,Kaitong,Tongyu,54041.0,44.8,123.0833,150.0
China,JL,Kalun,Kalun,54068.0,44.017,125.567,196.0
China,JL,Luozigou|Luo-Zi-Gou|Xiajian,Luozigou,54192.0,43.717,130.317,414.0
China,JL,Lushuihe,Lushuihe,54285.0,42.5167,127.8,745.0
China,JL,Maxian|Ji'An|Tukou,Maxian,54377.0,41.15,126.21666666666667,215.0
China,JL,Meihekou,Meihekou,54266.0,42.517,125.633,326.0
China,JL,Qianguo,Qianguo,50949.0,45.083333333333336,124.86666666666666,138.0
China,JL,Siping,Siping,54157.0,43.18333333333333,124.33333333333333,153.0
China,JL,Songjianghe|Donggang,Songjianghe,54287.0,42.1667,127.5,759.0
China,JL,Tonghua,Tonghua,54363.0,41.7167,125.9167,390.0
China,JL,Wangqing|Wang-Ch'Ing,Wangqing,54195.0,43.3167,129.75,242.0
China,JL,Wohutun|Wo-Hu-Tun,Wohutun,54142.0,43.7,123.6,149.0
China,JL,Wujiazhan|Wu-Chai-Chan,Wujiazhan,54063.0,44.9667,125.6833,159.0
China,JL,Yanji|Dongnong,Yanji,54292.0,42.86666666666667,129.5,238.0
China,JL,Zhengjiatun|Shuang-Liao,Zhengjiatun,54145.0,43.5,123.5,113.0
China,JS,Caokacun|Suzhou,Caokacun,58358.0,31.2667,120.6167,13.0
China,JS,Changzhou,Changzhou MET,58343.0,31.866,119.978,7.0
China,JS,Chentaizi|Shuang-Gou,Chentaizi,58137.0,33.217,118.183,-4.0
China,JS,Chentianwan|An-Feng,Chentianwan,58252.0,32.733,120.383,7.0
China,JS,Dayanggang|Lusi|Wangdun,Dayanggang,58265.0,32.083333333333336,121.53333333333333,3.8
China,JS,Dongnanzhuang,Dongnanzhuang,58083.0,34.82,119.13,10.0
China,JS,Dongsha,Dongsha,58044.0,34.583,119.25,4.0
China,JS,Gaoyou|Baota,Gaoyou,58241.0,32.7833,119.45,7.0
China,JS,Guo Linchang|Huaiyin|Houxian,Guo Linchang,58141.0,33.63333333333333,118.93333333333334,14.0
China,JS,Hede|Sheyang,Hede,58150.0,33.75,120.3,16.0
China,JS,Huaiyin|Qingjiang|Pijiadu,Huaiyin,58144.0,33.6,119.0333,27.0
China,JS,Huawuba,Huawuba,58250.0,32.567,120.467,4.0
China,JS,Liuzongqiao|Ru-Dong,Liuzongqiao,58267.0,32.267,121.083,10.0
China,JS,Lubei,Lubei,58244.0,32.55,119.233,23.0
China,JS,Maozhuang,Maozhuang,57068.0,34.233,117.433,1000.0
China,JS,Nanjing|Nanking,Nanjing / MET OBS,58238.0,31.933333333333334,118.9,32.0
China,JS,Qingkou|Dazhuxu,Dayishan,58040.0,34.85,119.13333333333334,9.0
China,JS,Qingyang|Si-Hong,Qingyang,58134.0,33.467,118.217,29.0
China,JS,Shangzui|Hongze Hu,Lake,58138.0,33.3333,118.6667,-4.0
China,JS,Shuanggou|Shuang-Gou,Shuanggou,58028.0,34.033,117.567,32.0
China,JS,Shujiaqiao|Yang-Zhou|Longquan,Shujiaqiao,58245.0,32.383,119.483,8.0
China,JS,Suicheng|Suining,Suicheng,58122.0,33.9,117.95,37.0
China,JS,Sushantou|Jiuli,Sushantou,58027.0,34.28333333333333,117.15,37.0
China,JS,Wu’an,Wu’an,58057.0,34.067,120.217,3.0
China,JS,Xiejiayuan|Mo-Tou Air Base,Xiejiayuan,58258.0,32.267,120.5,13.0
China,JS,Xinfu|Nantong,Jinsha,58259.0,32.1,120.8667,11.0
China,JS,Xuzhu|Liyang,Xuzhu,58345.0,31.433333333333334,119.48333333333333,10.0
China,JS,Yangjiashe|Baochuangang,Yangjiashe,58251.0,32.85,120.28333333333333,12.0
China,JS,Zhangdaicun|Wa Li,Zhangdaicun,58357.0,31.067,120.283,8.0
China,JS,Zhujiang|Jiang-Pu|Jiangpu,Zhujiang,58237.0,32.05,118.617,3.0
China,JX,Aoyang|Shang-Gao|Jinjiang,Aoyang,57699.0,28.233,114.9,49.0
China,JX,Bingxi|Yu-Shan,Bingxi,58631.0,28.667,118.25,225.0
China,JX,Changning|Xunwu,Changning,59102.0,24.95,115.65,299.0
China,JX,Chishi,Chishi,57995.0,25.567,114.633,142.0
China,JX,Dongshan|Shang-Yu,Dongshan,57992.0,25.8,114.533,148.0
China,JX,Ganzhou|Meilin|Qili,Ganzhou / MET OBS,57993.0,25.866666666666667,115.0,116.0
China,JX,Guixi,Guixi,58627.0,28.3,117.217,32.0
China,JX,Guling,Guling,58517.0,29.57,115.97,1165.0
China,JX,Guling|Lu Shan,Guling / Mountain,58506.0,29.583333333333332,115.98333333333333,866.0
China,JX,Guxiandu|Gu-Xian-Du,Guxiandu,58519.0,29.0833,116.8833,23.0
China,JX,Hanqiao,Hanqiao,57599.0,29.167,114.833,104.0
China,JX,Hecheng|Name Unknown (onc),Hecheng,58721.0,27.717,117.05,161.0
China,JX,Hengdian,Hengdian,57896.0,26.25,114.333,111.0
China,JX,Hetantan|Nan-Chuan|Huangzhu’an,Hetantan,57527.0,29.2,117.133,287.0
China,JX,Huanglongqiao|Qixian Shan,Huanglongqiao,58726.0,27.95,117.8333,851.0
China,JX,Huangshi|Huang-Shi-Du,Huangshi,58713.0,27.75,116.767,101.0
China,JX,Ji’an|Ji'An|Baitangxiang,Ji’an,57799.0,27.116666666666667,114.96666666666667,78.0
China,JX,Jingdezhen,Jingdezhen,58527.0,29.31222222222222,117.1686111111111,93.5
China,JX,Long’anqiao,Long’anqiao,57891.0,26.95,114.233,112.0
China,JX,Luokou,Luokou,58811.0,26.85,116.067,239.0
China,JX,Ma’ao|Ma-Ao|Wanli,Ma’ao,57597.0,29.05,114.317,123.0
China,JX,Nanchang|Nanch'ang|Qingyunpu,Nanchang Changbei Intl AP,58606.0,28.6,115.91666666666667,23.0
China,JX,Quanjiang,Quanjiang,57896.0,26.333,114.5,152.0
China,JX,Shantang Linchang|Xin-Feng,Shantang Linchang,57996.0,25.4,114.9333,140.0
China,JX,Shimenlou|Shi-Men-Lou,Shimenlou,57693.0,28.983,114.85,267.0
China,JX,Shunhuacun|Guangchang,Shunhuacun,58813.0,26.833333333333332,116.3,166.3
China,JX,Tankou|Cheng-Long|Lindong,Tankou,59092.0,24.967,114.667,530.0
China,JX,Tongmu|Tong-Mu,Tongmu,57783.0,27.967,113.917,146.0
China,JX,Wanghua|Yi-Chun|Yuanzhou,Wanghua,57792.0,27.8,114.367,120.0
China,JX,Wulizhuang|Gaotang,Wulizhuang,58715.0,27.583333333333332,116.65,62.0
China,JX,Xicun|Qingjiang,Zhangshuz,58608.0,28.05,115.5333,25.0
China,JX,Xihu|Approximate Location|Zhongting,Xihu,58521.0,29.833,117.167,337.0
China,JX,Xinjian|Approximate Location|Caojiali,Xinjian,58528.0,29.167,117.5,479.0
China,JX,Yangliuping|Hui-He|Qiutang Wangjia,Yangliuping,58607.0,28.217,115.15,47.0
China,JX,Yaojia|Shangrao,Yaojia,58626.0,28.4833,117.9833,114.0
China,JX,Yejiatang|Yushan,Yejiatang,58634.0,28.6833,118.25,115.0
China,JX,Yichun|Chuntai,Yichun,57793.0,27.8,114.38333333333334,89.0
China,JX,Yining|Xiushui|Nanya,Yining,57598.0,29.033333333333335,114.58333333333333,106.0
China,JX,Yiyang|Yi-Yang,Yiyang,58625.0,28.4,117.417,36.0
China,JX,Yutan|Approximate Location|Shijian,Yutan,58529.0,29.167,117.833,90.0
China,JX,Zhoujialin|Le-Ping,Zhoujialin,58621.0,28.983,117.117,29.0
China,JX,Zhoutang|Tai-Ho,Zhoutang,57893.0,26.783,114.9,54.0
China,LN,Anshan,Anshan,54339.0,41.1333,122.9833,42.0
China,LN,Babaoyingzi,Babaoyingzi,54324.0,41.55,120.45,173.0
China,LN,Beishitun,Beishitun,54455.0,40.483,120.567,11.0
China,LN,Chengjiabaozi|Benxi,Chengjiabaozi,54346.0,41.31666666666667,123.78333333333333,183.0
China,LN,Chengzitan,Chengzitan,54575.0,39.5,122.5,11.0
China,LN,Chenjiaweizi,Chenjiaweizi,54483.0,40.883,123.9,348.0
China,LN,Dalian|Luda|Dalien|Talien|Dairen,Dalian Zhoushuizi Intl AP,54662.0,38.9,121.63333333333334,84.0
China,LN,Dingjiaquan,Dingjiaquan,54564.0,39.55,121.283,5.0
China,LN,Fuxin,Fuxin,54237.0,42.0,121.6333,137.0
China,LN,Huanren,Huanren,54365.0,41.2667,125.3667,259.0
China,LN,Kuandian,Kuandian,54493.0,40.71666666666667,124.78333333333333,264.0
China,LN,Liaobin,Liaobin,54471.0,40.666666666666664,122.16666666666667,9.0
China,LN,Nianpangou,Nianpangou,54476.0,40.35,122.75,318.0
China,LN,Panshan|Pan-Shan,Panshan,54338.0,41.183,122.05,16.0
China,LN,Piao’ertun|Fu-Shun,Piao’ertun,54343.0,41.85,123.8,60.0
China,LN,Pochegou|Lu-Da,Zheng-Sha-He,54577.0,39.267,122.083,11.0
China,LN,Qidaoquanzi|Chaoyang,Qidaoquanzi AFLD,54326.0,41.5833,120.4333,174.0
China,LN,Qingyuan,Qingyuan,54259.0,42.06666666666667,124.86666666666666,220.0
China,LN,Qintun|Fuxian,Wafangdian,54563.0,39.6333,121.9833,158.0
China,LN,Renjiazhuang,Renjiazhuang,54584.0,39.717,123.067,8.0
China,LN,Shengli|Tai-An,Southeast,54336.0,41.383,122.45,16.0
China,LN,Shenyang|Fengt'ien|Mukden|Luoguantun,Dongta AB,54342.0,41.733333333333334,123.51666666666667,50.0
China,LN,Shijiawobao|Goubangzi,Shijiawobao,54335.0,41.3833,121.8,13.0
China,LN,Siping,Siping,54158.0,43.17,124.32,165.0
China,LN,Tongxing|Approximate Location|Zhenxing,Tongxing,54498.0,40.117,124.333,99.0
China,LN,Wafangjie,Wafangjie,54497.0,40.05,124.33333333333333,11.0
China,LN,Wafangjie,Wafangjie,54501.0,40.05,124.32,14.0
China,LN,Wangjiabaozi,Wangjiabaozi,54486.0,40.467,123.967,117.0
China,LN,Xiaoliujiazi|Ha-Erh-Tao,Xiaoliujiazi,54235.0,42.5,122.133,139.0
China,LN,Xintaihe|Da-Huo-Fang,Xintaihe,54351.0,41.8833,124.0833,119.0
China,LN,Xiongyue|Xiong-Yue-Cheng|Huayuanzi,Xiongyue,54477.0,40.167,122.133,16.0
China,LN,Xishan|Suizhong,Xishan,54454.0,40.35,120.35,14.0
China,LN,Yaohuajia,Yaohuajia,54236.0,42.416666666666664,122.53333333333333,71.0
China,LN,Zhongtun,Zhongtun,54337.0,41.13333333333333,121.11666666666666,40.0
China,LU,Beromünster|Beromunster|Waldi,Beromünster,6653.0,46.99611111111111,8.523333333333333,521.0
China,LU,Fankhaus|Napf Mountain,Fankhaus,6639.0,47.00472222222222,7.94,1403.98
China,MI,Deer Park|Hoboskar,Deer Park,51560.0,46.767,-85.7,179.0
China,NM,Altan Emel|Xin Barag Youqi,Altan Emel,50603.0,48.67888888888889,116.81,563.0
China,NM,Arxan|Wenquan,Arxan,50727.0,47.166666666666664,119.93333333333334,1014.0
China,NM,Bail Miao|Bailingmiao,Bail Miao,53352.0,41.7,110.43333333333334,1374.0
China,NM,Baileng,Baileng,53436.0,40.5,108.833,1011.0
China,NM,Bala Ga’er Gaole,Bala Ga’er Gaole,54016.0,44.57,117.6,997.0
China,NM,Baotou|Qianming,Baotou Erliban AP,53446.0,40.558333,110.0,999.0
China,NM,Bayan Hot|Alxa Zuoqi,Bayan Ho,53602.0,38.8333,105.5333,1391.0
China,NM,Bayan Hudag,Bayan Hudag,53323.0,41.867,107.9,1474.0
China,NM,Bayan Mod,Bayan Mod,52495.0,40.75,104.5,1326.0
China,NM,Bayan Toroi Nongchang,Bayan Toroi Nongchang,52268.0,42.083,101.667,975.0
China,NM,Beishan,Beishan / Mountain,52441.0,40.7167,98.6167,1609.0
China,NM,Biqeq|Pi Ko Chai(afld),Biqeq,53462.0,40.75,111.267,1043.0
China,NM,Boin Sum,Boin Sum,53278.0,42.2,112.5167,1333.0
China,NM,Bugt,Bugt,50632.0,48.766666666666666,121.91666666666667,750.0
China,NM,Bugt,Bugt,54226.0,42.333333333333336,120.7,415.0
China,NM,Changshun,Changshun,53436.0,41.9,114.0,1484.0
China,NM,Chifeng|Kan-kou-tzu,Ulanhad,54218.0,42.3,118.83333333333333,638.0
China,NM,Dabqig|Uxin-Qi|Galutu,Dabqig,53636.0,38.6,108.85,1295.0
China,NM,Dalain Hob,Dalain Hob,52353.0,41.967,100.883,927.0
China,NM,Darbagai|A-Lu-Chih-Lao-Ka,Darbagai,53523.0,39.883,108.0,1238.0
China,NM,Dayingzi,Dayingzi,54115.0,43.63333333333333,118.03333333333333,816.0
China,NM,Dayingzi,Dayingzi,54125.0,43.59,118.06,800.0
China,NM,Dong Bor Dabs,Dong Bor Dabs,53286.0,42.417,113.75,1202.0
China,NM,Dong Xire,Dong Xire,54125.0,43.5,120.0,364.0
China,NM,Dongsheng|Tianjiao,Dongsheng / SYN,53543.0,39.833333333333336,109.98333333333333,1433.0
China,NM,Duolun,Dolonnur,54208.0,42.18333333333333,116.46666666666667,1251.0
China,NM,Erden Tolgai|Enger Shooto,Erden Tolgai,53195.0,43.383,114.45,1078.0
China,NM,Erenhot|Eriyen|Ereen|Erlian|Wulan,Erenhot / SYN,53068.0,43.63333333333333,111.95,964.0
China,NM,Habiragan|Nan-Juan-Zi,Habiragan,54207.0,42.3,115.683,1432.0
China,NM,Hailar,Hailar Met Obs,50527.0,49.25,119.7,649.0
China,NM,Hailar|Hai-Lar,Tungshan,50528.0,49.217,119.8,657.0
China,NM,Hails,Hails,53231.0,41.45,106.38333333333334,1510.0
China,NM,Haliut,Haliut,53336.0,41.56666666666667,108.51666666666667,1281.0
China,NM,Har Orbog|Pang-Ting-To-To-Kai,Har Orbog,52391.0,41.75,103.967,969.0
China,NM,Haxat Hudag,Haxat Hudag,53073.0,44.75,112.833,1319.0
China,NM,Hohhot|Huhhot,Hohhot Baita Intl AP,53463.0,40.85,111.56666666666666,1188.0
China,NM,Holt Sum,Holt Sum,54017.0,44.167,117.333,1134.0
China,NM,Hongliugou|Yen Ma Chin (?),Hongliugou,52333.0,41.7,98.25,1412.0
China,NM,Hongpan|Ba-Dao-Gou,Hongpan,53376.0,41.417,112.8,1725.0
China,NM,Huade|Changshun,Huade,53391.0,41.9,114.0,1478.0
China,NM,Hunt,Hunt,54028.0,44.267,120.0,467.0
China,NM,Jargalangt|Tai-Le-Min-Su-Mu,Jargalangt,54001.0,44.9,115.4167,1069.0
China,NM,Jartai,Jartai,53502.0,39.78333333333333,105.75,1032.0
China,NM,Jining,Jining,53480.0,41.03333333333333,113.06666666666666,1412.0
China,NM,Jinsong|Jiu-Hai-Lai,Jinsong,50349.0,51.1333,124.05,497.0
China,NM,Jurhin,Jurhin,53276.0,42.4,112.9,1148.0
China,NM,Jurhin,Jurhin,53286.0,42.4,112.89,1152.0
China,NM,Kailu,Kailu,54134.0,43.6167,121.3167,228.0
China,NM,Lao-wang-fu|Wudan,Ongniud Qi,54213.0,42.9667,119.0333,625.0
China,NM,Linhe,Linhe,53513.0,40.733333333333334,107.36666666666666,1041.0
China,NM,Lubei,Lubei,54026.0,44.56666666666667,120.9,267.0
China,NM,Mandagin Hurel,Mandagin Hurel,53078.0,44.167,112.333,1047.0
China,NM,Mandal,Mandal,53149.0,42.53333333333333,110.13333333333334,1229.0
China,NM,Manzhouli|Man-Zhou-Li,Manzhouli,50514.0,49.55,117.4667,775.0
China,NM,Melhit|Chi Pi Pu Lang,Melhit,53473.0,40.883,112.883,1539.0
China,NM,Naran Bulag,Naran Bulag,53083.0,44.61666666666667,114.15,1179.0
China,NM,Nuanquanshang,Nuanquanshang,53563.0,39.8,111.683,1365.0
China,NM,Ongt Gol|Guaizihu,Ongt Gol,52378.0,41.36666666666667,102.36666666666666,960.0
China,NM,Onotin Sair,Onotin Sair,52268.0,41.94,101.06,941.0
China,NM,Onotin Sair|Ejin Qi,Onotin Sair,52267.0,41.95,101.06666666666666,938.0
China,NM,Qagan Bulag Sum,Qagan Bulag Sum,53363.0,41.667,111.783,1471.0
China,NM,Qarsan,Qarsan,50838.0,46.217,122.05,273.0
China,NM,Qongj,Qongj,53331.0,41.833,108.167,1421.0
China,NM,Saihan Torai,Saihan Torai,52343.0,41.95,100.0,948.0
China,NM,Sanhe|San-He,Sanhe,50425.0,50.5,120.0667,683.0
China,NM,Solon|Te-Po-Su-K,Miao,50834.0,46.5,121.3667,454.0
China,NM,Tulihe,Tulihe,50434.0,50.483333333333334,121.68333333333334,728.0
China,NM,Ulan,Ulan,53529.0,39.1,107.98333333333333,1368.0
China,NM,Uliastai,Uliastai,50915.0,45.516666666666666,116.96666666666667,850.0
China,NM,Uxin Jo Sum|Pa La Mu Tu Shih Li,Uxin Jo Sum,53539.0,39.15,108.9,1323.0
China,NM,Wulan,Wulan,53067.0,43.6,112.0,914.0
China,NM,Wulan,Wulan,53073.0,43.65,112.0,966.0
China,NM,Xamba,Xamba,53420.0,40.967,107.167,1018.0
China,NM,Xar Moron Sum|Shara Moron Sume,Xar Moron Sum,53362.0,42.0333,111.5333,1244.0
China,NM,Xi Ujimqin Qi|Bayan Ul Hot,Xi Ujimqin Qi,54012.0,44.583333333333336,117.6,1011.0
China,NM,Xiao’ergou|Xiao'Ergou,Xiao’ergou,50548.0,49.2,123.71666666666667,269.0
China,NM,Xiaoyangqi|Xiao-Yang-Qi,Xiaoyangqi,50442.0,50.8,124.2833,410.0
China,NM,Xiashanwan,Bairin Zuoq,54027.0,43.95,119.31666666666666,587.8
China,NM,Xilin Hot|Xiritala,Abagnar,54102.0,43.95,116.11666666666666,1000.0
China,NM,Xilin Qagan Obo,Xilin Qagan Obo,53063.0,44.4,111.5,1096.0
China,NM,Xin Hot,Xin Hot,53192.0,44.016666666666666,115.00333333333333,1141.0
China,NM,Xin|Hanggin Qi|Hang-Gin-Qi|Xinli,Xin,53533.0,39.85,108.733,1352.0
China,NM,Xinjie,Xinjie,53546.0,39.283,109.75,1310.0
China,NM,Yabrai|Lai-Yen-Ch'ih,Yabrai,52576.0,39.3833,102.8333,1229.0
China,NM,Zalantun,Zalantun,50639.0,48.0,122.733,310.0
China,NT,Alpnachstad|Pilatus Mtn,Alpnachstad,6659.0,46.97888888888889,8.252222222222223,2106.0
China,NX,Chengjiao|Xi-Ji,Chengjiao,53903.0,35.9667,105.7167,1927.0
China,NX,Dawukou|Shizuishan,Dawukou,53519.0,39.05,106.4,1122.0
China,NX,Fanxinzhuang,Fanxinzhuang,53818.0,36.117,106.633,1729.0
China,NX,Haicheng|Hai-Yuan,Haicheng,53805.0,36.567,105.65,1834.0
China,NX,Hui’anpu|Hui-An-Bu,Hui’anpu,53715.0,37.45,106.667,1345.0
China,NX,Panhe|Qi-Ying,Panhe,53810.0,36.55,106.15,1454.0
China,NX,Wanghongpu,Wanghongpu,53617.0,38.217,106.233,1103.0
China,NX,Xijiao|Guyuan,Xijiao,53817.0,36.0167,106.2833,1737.0
China,NX,Yanchi,Yanchi,53723.0,37.8,107.38333333333334,1351.0
China,NX,Yinchuan,Yinchuan City MET,53615.0,38.4713,106.2077,1109.0
China,NX,Yinchuan|Liangtian|Linghe,Yinchuan Hedong Intl AP,53614.0,38.46666666666667,106.2,1112.0
China,NX,Zhongning,Zhongning,53705.0,37.483333333333334,105.68333333333334,1184.0
China,QH,Babao,Babao,52657.0,38.2333,100.25,3087.0
China,QH,Baizhakanduo|Cang-Duo,Baizhakanduo,56036.0,34.067,98.233,4444.0
China,QH,Cairiwa,Cairiwa / UNKN (ABAND),56041.0,34.5,98.8833,4185.0
China,QH,Caoshida|Xinghai,Caoshida,52943.0,35.75,99.9833,3687.0
China,QH,Chaggur|Bie-Li-Xi-Du,Chaggur,56016.0,34.1,95.0333,4717.0
China,QH,Chaka|Cha-Ka,Chaka,52842.0,36.7833,99.0833,3104.0
China,QH,Chubxi,Chubxi / UNKN (ABAND),52941.0,35.7167,98.9167,4182.0
China,QH,Chugqênsumdo,Chugqênsumdo,56070.0,33.46,101.47,3350.0
China,QH,Chugqênsumdo|Jigzhi,Chugqênsumdo,56067.0,33.4667,101.4833,3887.0
China,QH,Cowargarzê|Cuo-Ba-Ri-Ga-Ze,Cowargarzê,56031.0,34.833,97.467,4275.0
China,QH,Da Juh,Da Juh,52698.0,37.067,94.5,2680.0
China,QH,Da Juh,Da Juh,52718.0,37.067,94.5,2680.0
China,QH,Da Qaidam,Da Qaidam,52713.0,37.85,95.36666666666666,3189.0
China,QH,Da Qaidam,Da Qaidam,52736.0,37.84,95.36,3174.0
China,QH,Delingha|Hexi,Delingha,52737.0,37.36666666666667,97.36666666666666,2995.0
China,QH,Dongchuan|Hao-Men|Haomen,Dongchuan,52765.0,37.3667,101.6167,2835.0
China,QH,Dongqingshezhong,Dongqingshezhong,56069.0,33.5,101.833,3820.0
China,QH,Golmud,Golmud,52818.0,36.416666666666664,94.9,2821.0
China,QH,Gyêgu,Gyêgu,56029.0,33.0,96.95,3839.0
China,QH,Haomen,Haomen,52766.0,37.367,101.7,2845.0
China,QH,Haxü,Haxü,56028.0,33.5,96.25,4976.0
China,QH,Hexi,Hexi,52738.0,37.36,97.36,2982.0
China,QH,Heyin|Hey-In,Heyin,52868.0,36.0333,101.4333,2238.0
China,QH,Huangyuan|Huang-Yuan,Huangyuan,52864.0,36.683,101.267,2641.0
China,QH,Huashixia|Approximate Location,Huashixia,52947.0,35.167,98.75,4174.0
China,QH,Huatugou|Mangnai,Huatugou,51886.0,38.25,90.85,2949.0
China,QH,Jiangxigou|Jiang-Xi-Gou,Jiangxigou,52854.0,36.6,100.367,3268.0
China,QH,Jiqu,Jiqu,56126.0,32.0,96.25,4152.0
China,QH,Jun Ul,Jun Ul,52723.0,37.833,96.75,3962.0
China,QH,Lenghu,Lenghu,52602.0,38.833333333333336,93.38333333333334,2754.0
China,QH,Machali,Huangheyan,56033.0,34.916666666666664,98.21666666666667,4287.0
China,QH,Mangqu|Guinan,Mangqu,52955.0,35.583333333333336,100.75,3123.0
China,QH,Mucaoliangzhong Fanzhichang,Mucaoliangzhong Fanzhichang,52957.0,35.2667,100.65,3279.0
China,QH,Mucaoliangzhong Fanzhichang|Approximate Location,Mucaoliangzhong Fanzhichang,52958.0,35.267,100.65,3289.0
China,QH,Muri,Muri,52753.0,37.683,100.7,3419.0
China,QH,Ngola Shankou|Approximate Location,Ngola Shankou,52940.0,35.5,99.333,4329.0
China,QH,Nianlong|Luo-Xue,Nianlong,56151.0,32.5667,100.5833,3806.0
China,QH,Nomhom,Nomhom,52826.0,36.5,96.75,2704.0
China,QH,Nomhon Nongchang|Nuo-Mu-Hong,Nomhon Nongchang,52825.0,36.45,96.4667,2754.0
China,QH,Nyamangqungo,Nyamangqungo,56007.0,33.417,92.833,951.0
China,QH,Qapugtang|Zadoi,Qapugtang,56018.0,32.9,95.3,4165.0
China,QH,Qarhan|Gol Mud,Qarhan AP,52813.0,36.817,95.35,2681.0
China,QH,Qiaotouzi,Qiaotouzi,52618.0,39.167,94.833,3720.0
China,QH,Qingshuihe|Qingshui-He,Qingshuihe,56034.0,33.8,97.1333,4437.0
China,QH,Sêrbolungba,Sêrbolungba,56021.0,34.13333333333333,95.78333333333333,4203.0
China,QH,Sêrbolungba,Sêrbolungba,56026.0,34.13,95.77,4176.0
China,QH,Sêrbolungba,Sêrbolungba,56028.0,34.13,95.77,4176.0
China,QH,Serh,Serh,52833.0,36.95,98.35,2969.0
China,QH,Shaliuhe,Shaliuhe,52754.0,37.333333333333336,100.13333333333334,3301.0
China,QH,Shang Gongma,Shang Gongma,56046.0,33.75,99.65,3987.0
China,QH,Shangchuankou|Minhe,Shangchuankou,52876.0,36.3333,102.8333,1745.0
China,QH,Tanggulashan,Tanggulash,56004.0,34.21666666666667,92.43333333333334,4536.0
China,QH,Tart|T'a-Erh-Ting,Tart,52707.0,37.0667,92.8667,2917.0
China,QH,Tumba|Gonghe,Tumba,52856.0,36.35,100.7833,3195.0
China,QH,Tuole|Tuo-Le,Tuole,52633.0,38.8,98.4167,3367.0
China,QH,Wudaoliang,Wudaoliang,52907.0,35.167,92.833,4759.0
China,QH,Wudaoliang,Wudaoliang,52908.0,35.21666666666667,93.08333333333333,4626.0
China,QH,Xangda,Xangda,56127.0,32.25,96.22,4145.0
China,QH,Xangda|Nangqen,Xangda,56125.0,32.25,96.2167,4783.0
China,QH,Xarag,Qagan Us,52836.0,36.3,98.1,3187.0
China,QH,Xiangride Nongchang,Xiangride Nongchang,52838.0,36.067,97.75,2953.0
China,QH,Xiaodongliang,Xiaodongliang,52942.0,35.767,99.167,3783.0
China,QH,Xining|Houzihe,Xining Caojiabao Intl AP,52866.0,36.65,101.71666666666667,2409.8
China,QH,Xinyuan|Hsin-Yuan,Xinyuan,52740.0,37.3,99.0167,3415.0
China,QH,Xolungtang,Xolungtang,52777.0,37.15,102.217,2913.0
China,QH,Yegainnyin|Henan,Yegainnyin,56065.0,34.733333333333334,101.6,3500.0
China,QH,Yematan,Yematan,52736.0,37.333,98.25,3510.0
China,QH,Yeniugou|Yeh-Niu-Kou,Yeniugou,52645.0,38.4667,99.55,3374.0
China,QH,Yiliping|Sha-Liang-Zi,Yiliping,52702.0,37.917,93.35,2694.0
China,QH,Yuyuriben,Yuyuriben,56019.0,33.333,95.25,4610.0
China,QH,Zadoi,Zadoi,56026.0,34.0,96.75,4650.0
China,QH,Zelinggou,Zelinggou,52738.0,37.317,97.833,3175.0
China,QH,Zequ|Son-Ag,Zequ,52968.0,35.0333,101.4667,3673.0
China,QH,Ziliujing,Ziliujing,51895.0,37.85,91.483,3061.0
China,SC,Aba|A-Ba,Aba,56171.0,32.917,101.7,3320.0
China,SC,Baiyansi,Baiyansi,56492.0,28.766666666666666,104.6,502.8
China,SC,Bamei|Qian-Ning,Bamei,56265.0,30.5,101.483,3473.0
China,SC,Barkam|Maerkang,Barkam,56172.0,31.9,102.23333333333333,2907.0
China,SC,Batang,Batang,56247.0,30.0,99.1,2521.0
China,SC,Boke|Tu-Zha,Boke,56459.0,28.15,100.9333,2325.0
China,SC,Chengdu|Yuanjianian|Ch'engtu|Chengtu,Chengdu Shuangliu Intl AP,56294.0,30.58,103.948333,512.4
China,SC,Daba|Da-Ba,Daba,57607.0,28.133,105.15,449.0
China,SC,Dalongdong|Mian-Ning,Dalongdong,56474.0,28.583,102.183,1859.0
China,SC,Daping Bacun|Zhenping,Daping Bacun,56183.0,32.217,103.783,2400.0
China,SC,Dazhang,Dazhang,56143.0,32.783,99.917,4137.0
China,SC,Dazhasi|Ruo'Ergai,Dazhasi,56079.0,33.59444444444444,102.95555555555555,3513.8
China,SC,Erdaoping,Erdaoping,56376.0,29.583,102.717,2270.0
China,SC,Erjue|Yuexe,Erjue,56475.0,28.6167,102.6,2119.0
China,SC,Fengjialiang|Bazhong,Fengjialiang,57313.0,31.9,106.7,631.0
China,SC,Ganzi,Ganzi,56146.0,31.616666666666667,100.0,3381.0
China,SC,Gaocheng,Gaocheng,56257.0,30.0,100.26666666666667,3970.0
China,SC,Gaoqiao|Neijiang,Gaoqiao,57503.0,29.616666666666667,105.11666666666666,314.0
China,SC,Gongya|Dege,Gongya,56144.0,31.733333333333334,98.56666666666666,3184.0
China,SC,Hegahaqu|Gan-Luo,Hegahaqu,56472.0,28.95,102.983,2814.0
China,SC,Hexi|Guang-Yuan,Hexi,57206.0,32.433,105.8,484.0
China,SC,Heye|Bai-Gu-Si,Heye,56089.0,33.217,103.9,2427.0
China,SC,Housuo|Da-Cun,Housuo,56561.0,27.85,101.15,2394.0
China,SC,Jiancheng|Chien Yang,Jiancheng,56295.0,30.4,104.55,382.0
China,SC,Jiangnan|Langzhong,Jiangnan,57306.0,31.583333333333332,105.96666666666667,371.0
China,SC,Jiaotong|Neijiang,Jiaotong,57504.0,29.5833,105.05,355.0
China,SC,Jiayi|Tian-Di-Ba,Jiayi,56581.0,27.7,103.2,2399.0
China,SC,Jin’anhuizhu,Sungqu,56182.0,32.666666666666664,103.6,2961.0
China,SC,Jinzhu|Daocheng,Dabba,56357.0,29.05,100.3,3799.0
China,SC,Kangding,Dardo,56374.0,30.05,101.96666666666667,2819.0
China,SC,Lamashan,Lamashan,56562.0,27.767,101.483,3034.0
China,SC,Laoji|Zhao-Zi-Ba,Laoji,56576.0,27.6,102.85,2466.0
China,SC,Leshan,Leshan,56386.0,29.5667,103.7667,286.0
China,SC,Liaoshan|E-Bian,Liaoshan,56384.0,29.4,103.317,956.0
China,SC,Liucheng|Wenjiang,Liucheng,56187.0,30.75,103.86666666666666,541.0
China,SC,Long’an|Pingwu,Long’an,56193.0,32.416666666666664,104.51666666666667,1140.0
China,SC,Longfeng|Xuyong,Yongning,57608.0,28.2167,105.4333,417.0
China,SC,Luzhou,Luzhou,57602.0,28.8833,105.4333,300.0
China,SC,Maoxian|Maoxiangping,Maoxian,56183.0,31.717,103.883,1620.0
China,SC,Meixing|Xiao-Jin,Meixing,56178.0,31.0167,102.3667,2901.0
China,SC,Mianhuapo|Naxi,Mianhuapo,57604.0,28.783333333333335,105.38333333333334,281.0
China,SC,Mingyue’an|Emei Shan,Mingyue’an,56385.0,29.516666666666666,103.33333333333333,2819.0
China,SC,Nanchong,Nanchong,57411.0,30.745555555555555,106.13194444444444,330.0
China,SC,Nanjiao|Ya'An,Nanjiao,56287.0,29.983333333333334,103.0,605.0
China,SC,Nanwai|Da Xian,Nanwai,57328.0,31.2,107.5,305.0
China,SC,Pengnan,Pengnan,57406.0,30.433,105.867,334.0
China,SC,Puming|Mianyang|Shitang,Puming,56196.0,31.45,104.73333333333333,460.0
China,SC,Qingxi|Han-Yuan-Jie,Qingxi,56375.0,29.583,102.617,1658.0
China,SC,Qümong|Shiqu,Qümong,56038.0,32.9833,98.1,4261.0
China,SC,Rixiwa|Chun-Luo-Si,Rixiwa,56147.0,31.117,98.683,3965.0
China,SC,Rubu,Rubu,56315.0,29.033,100.167,4540.0
China,SC,Seke|Sertar,Seke,56152.0,32.28333333333333,100.33333333333333,3927.0
China,SC,Seke|Sertar,Seke,56156.0,32.28,100.32,3896.0
China,SC,Seke|Sertar,Seke,56157.0,32.28,100.32,3896.0
China,SC,Shanjiaoba|Ma-Tang,Shanjiaoba,56173.0,31.85,102.7,3563.0
China,SC,Shijiawan|Name Unknown,Shijiawan,56674.0,26.517,102.1,2103.0
China,SC,Sibiqi,Sibiqi,56479.0,28.217,103.0,1909.0
China,SC,Songtao,Songtao,56298.0,30.117,104.617,379.0
China,SC,Suining,Suining,57405.0,30.5,105.5833,294.0
China,SC,Taiping,Taiping,57237.0,32.06666666666667,108.03333333333333,638.0
China,SC,Tianbali|Zhao-Hua,Tianbali,57208.0,32.333,105.683,546.0
China,SC,Tongchuan,Tongchuan,57307.0,31.083,105.083,366.0
China,SC,Weizhou|Wenchuan,Weizhou,56188.0,31.4833,103.5833,1340.0
China,SC,Wenlin|Ren-Shou,Wenlin,56297.0,30.0,104.133,484.0
China,SC,Xia’er,Gyaisi,56462.0,29.0,101.5,3147.0
China,SC,Xianan’an,Xianan’an,56097.0,33.033,104.117,2692.0
China,SC,Xianshui|Dawu,Xianshui,56167.0,30.966666666666665,101.11666666666666,3008.6
China,SC,Xichang,Xichang,56571.0,27.9,102.26666666666667,1579.0
China,SC,Xichang,Xichang,56577.0,27.9,102.27,1599.0
China,SC,Xining|Hu-Jia-Pu-Ziia,Xining,56485.0,28.5167,103.6167,935.0
China,SC,Xinjian,Xinjian,57424.0,30.79,106.07,310.0
China,SC,Xionglongxi|Xinlong,Nyagrong,56251.0,30.9667,100.2,3323.0
China,SC,Xuba|Kao-Jik,Xuba,56132.0,32.5,97.933,3433.0
China,SC,Yangbai|Approximate Location,Yangbai,57321.0,31.883,107.083,523.0
China,SC,Yanjing|Yanyuan,Yanjing,56565.0,27.4333,101.5333,2559.0
China,SC,Yanmen|Yan-Men-Ba,Yanmen,57207.0,32.217,105.2,812.0
China,SC,Yongxing|Yong-Xing,Yongxing,57327.0,31.133,107.083,369.0
China,SC,Yueyang,Yueyang,57407.0,30.1,105.333,299.0
China,SC,Zhenjiangguanxiang,Zhenjiangguanxiang,56183.0,32.333,103.733,2480.0
China,SD,Cangkou|Cang-Kou,Cangkou,54858.0,36.167,120.367,5.0
China,SD,Cangshang|Cang-Shang,Cangshang,54745.0,37.367,119.9,8.0
China,SD,Chaocheng|Xinxian|Shenxian,Chaocheng,54808.0,36.233333333333334,115.66666666666667,41.0
China,SD,Dezhou,Dezhou,54714.0,37.4333,116.3167,19.0
China,SD,Dingtao|Ding-Tao,Dingtao,54907.0,35.067,115.567,57.0
China,SD,Dingtao|Dzengtao|Dengji,Dingtao,54909.0,35.083333333333336,115.51666666666667,51.0
China,SD,Dongcun|Haiyang,Dongcun,54863.0,36.766666666666666,121.18333333333334,19.0
China,SD,Feicheng|Fezxzan,Feicheng,54929.0,35.25,117.95,108.0
China,SD,Fushan Qu|Fu Shan,Fushan Qu,54764.0,37.5,121.25,27.0
China,SD,Gaomi|Gao-Mi,Gaomi,54846.0,36.383,119.733,53.0
China,SD,Gusidian|Da-Xin-Dian,Gusidian,54756.0,37.617,120.9,66.0
China,SD,Hanting,Hanting,54843.0,36.766666666666666,119.18333333333334,35.0
China,SD,Heze,Caozhou,54906.0,35.25,115.4333,47.0
China,SD,Huimin,Huimin,54725.0,37.5,117.53333333333333,12.0
China,SD,Jiangjiatuan|Weihai|Weihaiwai|Port Edward,Jiangjiatuan,54774.0,37.45,122.0333,132.0
China,SD,Jiangjunzhai|Ling Hsien,Jiangjunzhai,54716.0,37.367,116.517,19.0
China,SD,Jinan|Tsinan,Jinan AP,54823.0,36.6,117.05,213.0
China,SD,Jining|Ji-Ning,Jining,54915.0,35.4,116.55,39.0
China,SD,Laiyang,Laiyang,54852.0,36.9833,120.65,41.0
China,SD,Lingcheng|Lingxian,Lingcheng,54715.0,37.333333333333336,116.56666666666666,26.0
China,SD,Linyi,Linyi,54938.0,35.05,118.35,86.0
China,SD,Linzicheng|Lin-Zi,Linzicheng,54830.0,36.8667,118.3333,33.0
China,SD,Liujiaguanzhuang|Juxian,Liujiaguanzhuang,54936.0,35.55,118.75,104.0
China,SD,Longkou,Longkou,54753.0,37.61666666666667,120.31666666666666,8.0
China,SD,Longwang|Nanwu,Longwang,54853.0,36.983,120.817,23.0
China,SD,Mengyin|Meng Yin,Mengyin,54923.0,35.717,117.917,183.0
China,SD,Mingshui|Zhangqui,Mingshui,54727.0,36.65,117.5,263.0
China,SD,Nanma|Yiyuan,Nanma,54836.0,36.18333333333333,118.15,295.0
China,SD,Qingdao|Ch'ingtao|Tsingtao|Dazhanshancun,Qingdao Liuting Intl AP,54857.0,36.06666666666667,120.33333333333333,40.0
China,SD,Rizhao,Rizhao,54945.0,35.5,119.6,66.0
China,SD,Shidao,Shidao,54871.0,36.883,122.417,67.0
China,SD,Tai’an|Tai Shan,Tai’an / Mountain,54826.0,36.25,117.1,1133.0
China,SD,Tai’an|Tai-An,Tai’an,54827.0,36.183,117.133,136.0
China,SD,Xiadian|Xia-Dian,Xiadian,54758.0,37.1,120.317,134.0
China,SD,Xinbincheng|Bin-Xian,Xinbincheng,54726.0,37.467,117.967,15.0
China,SD,Yanzhou,Yanzhou,54916.0,35.53388888888889,116.8425,43.3
China,SD,Yidao|Approximate Location,Yidao,54757.0,37.167,120.167,153.0
China,SD,Yong’an|Yongan,Yong’an,54736.0,37.55,118.7333,7.0
China,SD,Zaozhuang|Tsaochuang,Zaozhuang,58202.0,34.883,117.567,77.0
China,SD,Zhancheng|Zhan-Cheng,Zhancheng,54723.0,37.683,117.8,15.0
China,SD,Zhangdazhuang,Zhangdazhuang,54713.0,37.833,116.833,9.0
China,SD,Zhifutun,Zhifutun,54765.0,37.55,121.367,12.0
China,SH,Baoshan|Shanghai|Panjiazhai,Baoshan,58362.0,31.416666666666668,121.45,4.0
China,SH,Minhang|Min-Hang|Jiangchuanlu,Minhang,58462.0,31.0,121.4,8.0
China,SH,Shanghai|Caohejing,Shanghai Hongqiao Intl AP|Hung Chiao AP,58367.0,31.196667,121.335,3.0
China,SH,Zhujing|Jin-Shan,Zhujing,58461.0,30.9,121.15,6.0
China,SN,Damaidigounao|Cui-Mu,Damaidigounao,57023.0,34.8,107.867,1446.0
China,SN,Fengxi|Luo-Chuan,Fengxi,53942.0,35.75,109.4167,1028.0
China,SN,Guanmiao|Ankang,Xing'An,57245.0,32.71666666666667,109.03333333333333,282.0
China,SN,Guhantai,Guhantai,57127.0,33.06666666666667,107.03333333333333,513.0
China,SN,Hanyin|Han-Yin,Hanyin,57232.0,32.9,108.5167,384.0
China,SN,Huaishuicha|Approximate Location,Huaishuicha,53745.0,37.467,109.583,1269.0
China,SN,Huashan|Hua Shan,Huashan / Mountain,57046.0,34.483333333333334,110.08333333333333,1657.0
China,SN,Hugoumen|Huang-Long,Hugoumen,53945.0,35.583,109.933,1310.0
China,SN,Kaimingsi Tower|Yang-Xian,Kaimingsi Tower,57128.0,33.217,107.55,465.0
China,SN,Letangpu,Letangpu,53757.0,37.183,110.117,1077.0
China,SN,Liangcun|Jinghe,Liangcun,57131.0,34.43333333333333,108.96666666666667,411.0
China,SN,Lindicun|Shangxian,Lindicun,57143.0,33.9167,109.95,1014.0
China,SN,Longwangping|Wen-Huang-Ping,Longwangping,57134.0,33.45,108.25,1277.0
China,SN,Mingzhou|Suide,Mingzhou,53754.0,37.4667,110.25,899.0
China,SN,Ningshan,Ningshan,57130.0,33.333,108.333,892.0
China,SN,Pingmin,Pingmin,57051.0,34.833,110.167,329.0
China,SN,Qianxian|Xian|Xi'an|Ch'ang-an|Changan|Sian,Qian-Xian,57034.0,34.5333,108.2333,642.0
China,SN,Qiheng|Approximate Location,Qiheng,57026.0,34.483,107.95,654.0
China,SN,Qinhe,Qinhe,53652.0,38.23,109.69,1058.0
China,SN,Qinhe|Qingyunshan,Qinhe,53646.0,38.266666666666666,109.78333333333333,1151.0
China,SN,Qiucha,Qiucha,53823.0,36.817,107.8,1465.0
China,SN,Shangnan|Shang-Nan,Shangnan,57156.0,33.5333,110.8833,535.0
China,SN,Shigu|Baoji,Shigu,57016.0,34.35,107.1333,603.0
China,SN,Shiquan|Shi-Quan,Shiquan,57137.0,33.05,108.25,461.0
